,name,store_num,address,state,zip,phone,latitude,longitude,formatted_address,accuracy
0,114 Grocery & Deli Incorporated,1,"114 Cozine Ave Brooklyn,",NY,11207,(718) 257-8775,40.6541285,-73.8866072,"114 Cozine Ave, Brooklyn, NY 11207, USA",ROOFTOP
1,1st Oriental Supermarket,1,"5132 W Colonial Dr Orlando,",FL,32808,(407) 292-3965,28.55033,-81.45044399999999,"5132 W Colonial Dr, Orlando, FL 32808, USA",ROOFTOP
2,1st Oriental Supermarket,2,"4703 Clarcona Ocoee Rd Orlando,",FL,32810,(407) 292-3965,28.6130087,-81.43873560000002,"4703 Clarcona Ocoee Rd, Orlando, FL 32810, USA",ROOFTOP
3,A & A Fine Foods,1,"191 Main St Lincoln Park,",NJ,07035,(973) 633-7878,40.9233389,-74.3058171,"191 Main St, Lincoln Park, NJ 07035, USA",ROOFTOP
4,A & G Fine Foods Incorporated,1,"400 Lincoln Blvd Middlesex,",NJ,08846,(732) 563-4001,40.567892,-74.500084,"400 Lincoln Blvd, Middlesex, NJ 08846, USA",ROOFTOP
5,A & P Food Stores,1,"767 Pine St Bristol,",CT,06010,(860) 582-6821,41.6704908,-72.8944769,"767 Pine St, Bristol, CT 06010, USA",ROOFTOP
6,A & P Food Stores,2,"207 Webster Square Rd Berlin,",CT,06037,(860) 828-7500,41.631075,-72.744996,"207 Webster Square Rd, Berlin, CT 06037, USA",ROOFTOP
7,A & P Food Stores,3,"Webster Sq Berlin,",CT,06037,(860) 828-7500,41.6287838,-72.74575639999999,"Webster Square Rd, Berlin, CT 06037, USA",GEOMETRIC_CENTER
8,A & P Food Stores,4,"175 Lowrey Pl Newington,",CT,06111,(860) 666-1168,41.6947643,-72.71904479999999,"175 Lowrey Pl, Newington, CT 06111, USA",ROOFTOP
9,A & P Food Stores,5,"90 Halls Rd Old Lyme,",CT,06371,(860) 434-1433,41.3221932,-72.33802159999999,"90 Halls Rd, Old Lyme, CT 06371, USA",ROOFTOP
10,A & P Food Stores,6,"179 Stonington Rd Pawcatuck,",CT,06379,(860) 536-5813,41.4011346,-71.9505954,"179 N Stonington Rd, Pawcatuck, CT 06379, USA",RANGE_INTERPOLATED
11,A & P Food Stores,7,"1060 W Main St Branford,",CT,06405,(203) 481-9671,41.2737671,-72.8322771,"1060 W Main St, Branford, CT 06405, USA",ROOFTOP
12,A & P Food Stores,8,"820 Washington St Middletown,",CT,06457,(860) 347-5378,41.5562731,-72.680989,"820 Washington St, Middletown, CT 06457, USA",ROOFTOP
13,A & P Food Stores,9,"745 Foxon Rd New Haven,",CT,06513,(203) 467-8580,41.323491,-72.85488269999999,"745 Foxon Rd, East Haven, CT 06513, USA",ROOFTOP
14,A & P Food Stores,10,"1700 Park Ave Bridgeport,",CT,06604,(203) 368-1694,41.1827669,-73.2056502,"1700 Park Ave, Bridgeport, CT 06604, USA",ROOFTOP
15,A & P Food Stores,11,"799 New Haven Rd Naugatuck,",CT,06770,(203) 729-1560,41.4726885,-73.04296699999999,"799 New Haven Rd, Naugatuck, CT 06770, USA",ROOFTOP
16,A & P Food Stores,12,"35 Main St Danbury,",CT,06810,(203) 748-9122,41.3883932,-73.4464345,"35 Main St, Danbury, CT 06810, USA",ROOFTOP
17,A & P Food Stores,13,"1 Padanaram Rd Danbury,",CT,06811,(203) 791-2264,41.4128438,-73.4564942,"1 Padanaram Rd, Danbury, CT 06811, USA",ROOFTOP
18,A & P Food Stores,14,"42 Danbury Rd Ridgefield,",CT,06877,(203) 431-0432,41.2902039,-73.49697499999999,"42 Danbury Rd, Ridgefield, CT 06877, USA",ROOFTOP
19,A & P Food Stores,15,"1201 High Ridge Rd Stamford,",CT,06905,(203) 968-0350,41.1098305,-73.5463323,"1201 High Ridge Rd, Stamford, CT 06905, USA",ROOFTOP
20,A & P Food Stores,16,"14 W Main St Middletown,",DE,19709,(770) 972-3771,39.44940649999999,-75.71729599999999,"14 W Main St, Middletown, DE 19709, USA",ROOFTOP
21,A & P Food Stores,17,"17656 N Highland Ave Arlington,",GA,39813,(410) 341-0741,31.4406124,-84.72508719999999,"17656 Highland Ave N, Arlington, GA 39813, USA",ROOFTOP
22,A & P Food Stores,18,"1968 W Peterson Ave Chicago,",IL,60660,(773) 743-3940,41.9909891,-87.6796899,"1968 W Peterson Ave, Chicago, IL 60660, USA",ROOFTOP
23,A & P Food Stores,19,"26016 State Road 19 Arcadia,",IN,46030,(317) 984-5040,40.1700294,-86.0132734,"26016 State Rte 19, Arcadia, IN 46030, USA",GEOMETRIC_CENTER
24,A & P Food Stores,20,"N Us 35 Winamac,",IN,46996,(574) 946-4921,41.0514628,-86.6029585,"US-35, Winamac, IN, USA",GEOMETRIC_CENTER
25,A & P Food Stores,21,"701 Royal St New Orleans,",LA,70116,(504) 523-1353,29.9581831,-90.0647868,"701 Royal St, New Orleans, LA 70116, USA",ROOFTOP
26,A & P Food Stores,22,"4801 Hollins Ferry Rd Halethorpe,",MD,21227,(410) 242-3101,39.2254396,-76.6853951,"4801 Hollins Ferry Rd, Halethorpe, MD 21227, USA",ROOFTOP
27,A & P Food Stores,23,"720 W Woodrow Wilson Ave Jackson,",MS,39213,(601) 352-7515,32.3270227,-90.20105989999999,"720 W Woodrow Wilson Ave, Jackson, MS 39213, USA",ROOFTOP
28,A & P Food Stores,24,"221 E Main St Battleboro,",NC,27809,(520) 514-9567,36.0487537,-77.7487213,"Battleboro, Rocky Mount, NC, USA",APPROXIMATE
29,A & P Food Stores,25,"1322 Linwood Rd Gastonia,",NC,28052,(704) 868-2991,35.246187,-81.2116259,"1322 Linwood Rd, Gastonia, NC 28052, USA",ROOFTOP
30,A & P Food Stores,26,"54 Lock St Nashua,",NH,03064,(603) 595-4908,42.7668904,-71.46200859999999,"54 Lock St, Nashua, NH 03064, USA",ROOFTOP
31,A & P Food Stores,27,"163 Avenue A # 169 Bayonne,",NJ,07002,(201) 823-3262,,,,
32,A & P Food Stores,28,"19 Belleville Ave Bloomfield,",NJ,07003,(973) 429-8754,40.7976587,-74.1798799,"19 Belleville Ave, Bloomfield, NJ 07003, USA",ROOFTOP
33,A & P Food Stores,29,"550 Myrtle Ave Boonton,",NJ,07005,(973) 394-9570,40.9086562,-74.39695739999999,"550 Myrtle Ave, Boonton, NJ 07005, USA",ROOFTOP
34,A & P Food Stores,30,"425 Anderson Ave Fairview,",NJ,07022,(201) 941-2800,40.8209576,-73.9920935,"425 Anderson Ave, Fairview, NJ 07022, USA",ROOFTOP
35,A & P Food Stores,31,"289 Bergen Blvd Fairview,",NJ,07022,(201) 945-5255,40.8195888,-74.00201,"289 Bergen Blvd, Fairview, NJ 07022, USA",ROOFTOP
36,A & P Food Stores,32,"59 Outwater Ln Garfield,",NJ,07026,(973) 253-0530,40.8819724,-74.11618039999999,"59 Outwater Ln, Garfield, NJ 07026, USA",ROOFTOP
37,A & P Food Stores,33,"614 Clinton St Hoboken,",NJ,07030,(201) 795-1783,40.7454203,-74.033963,"614 Clinton St, Hoboken, NJ 07030, USA",ROOFTOP
38,A & P Food Stores,34,"80 Market St Kenilworth,",NJ,07033,(908) 241-4424,40.6760462,-74.2820976,"80 Market St, Kenilworth, NJ 07033, USA",ROOFTOP
39,A & P Food Stores,35,"453 Valley St Maplewood,",NJ,07040,(973) 327-0277,40.7375993,-74.26662499999999,"453 Valley St, Maplewood, NJ 07040, USA",ROOFTOP
40,A & P Food Stores,36,"501 Valley Rd Montclair,",NJ,07043,(973) 746-3235,40.8365149,-74.2066652,"501 Valley Rd, Montclair, NJ 07043, USA",RANGE_INTERPOLATED
41,A & P Food Stores,37,"2220 91st St North Bergen,",NJ,07047,(201) 662-4700,40.8191566,-74.0182145,"2220 91st St, North Bergen, NJ 07047, USA",ROOFTOP
42,A & P Food Stores,38,"1425 Kennedy Blvd North Bergen,",NJ,07047,(201) 864-9300,40.7645326,-74.0441495,"1425 John F. Kennedy Blvd, North Bergen, NJ 07047, USA",ROOFTOP
43,A & P Food Stores,39,"375 Paterson Ave Wallington,",NJ,07057,(201) 935-7822,40.844628,-74.1063317,"375 Paterson Ave, Wallington, NJ 07057, USA",ROOFTOP
44,A & P Food Stores,40,"177 Washington Valley Rd Warren,",NJ,07059,(606) 451-1782,40.6153743,-74.496889,"177 Washington Valley Rd, Warren, NJ 07059, USA",ROOFTOP
45,A & P Food Stores,41,"52 Westfield Ave Clark,",NJ,07066,(732) 388-7334,40.618939,-74.296386,"52 Westfield Ave, Clark, NJ 07066, USA",ROOFTOP
46,A & P Food Stores,42,"907 Oak Tree Ave South Plainfield,",NJ,07080,(908) 791-1600,40.5785848,-74.3897192,"907 Oak Tree Ave, South Plainfield, NJ 07080, USA",ROOFTOP
47,A & P Food Stores,43,"789 Saint George Ave Woodbridge,",NJ,07095,(732) 855-9371,40.5660513,-74.2877577,"789 St Georges Ave, Woodbridge, NJ 07095, USA",ROOFTOP
48,A & P Food Stores,44,"125 18th St Jersey City,",NJ,07310,(201) 217-9228,40.7330779,-74.0375313,"125 18th St, Jersey City, NJ 07310, USA",ROOFTOP
49,A & P Food Stores,45,"45 De Mercurio Dr Allendale,",NJ,07401,(201) 934-9161,41.0289552,-74.1281256,"45 De Mercurio Dr, Allendale, NJ 07401, USA",ROOFTOP
50,A & P Food Stores,46,"1926 Union Valley Rd Hewitt,",NJ,07421,(973) 657-1330,41.1530301,-74.3537987,"1926 Union Valley Rd, Hewitt, NJ 07421, USA",ROOFTOP
51,A & P Food Stores,47,"1730 Us Highway 46 Little Falls,",NJ,07424,(973) 812-8300,40.888236,-74.2151812,"1730 US-46, Woodland Park, NJ 07424, USA",ROOFTOP
52,A & P Food Stores,48,"125 Franklin Tpke Mahwah,",NJ,07430,(201) 512-9332,41.0992549,-74.14473219999999,"125 Franklin Turnpike, Mahwah, NJ 07430, USA",ROOFTOP
53,A & P Food Stores,49,"136 Lake Ave Midland Park,",NJ,07432,(201) 612-3020,40.9831336,-74.14042169999999,"136 Lake Ave, Midland Park, NJ 07432, USA",ROOFTOP
54,A & P Food Stores,50,"5734 Berkshire Valley Rd Oak Ridge,",NJ,07438,(973) 208-2255,41.0369941,-74.5036052,"5734 Berkshire Valley Rd, Oak Ridge, NJ 07438, USA",ROOFTOP
55,A & P Food Stores,51,"500 State Hwy 23 Pequannock,",NJ,07440,(973) 616-7717,40.9679005,-74.28266959999999,"500 NJ-23, Pompton Plains, NJ 07444, USA",ROOFTOP
56,A & P Food Stores,52,"455 State Rt 23 Sussex,",NJ,07461,(973) 875-3256,41.2035002,-74.60184029999999,"455 NJ-23, Wantage, NJ 07461, USA",RANGE_INTERPOLATED
57,A & P Food Stores,53,"16 High Point Ter Sussex,",NJ,07461,(973) 875-5701,41.2155137,-74.55170629999999,"16 High Point Terrace, Sussex, NJ 07461, USA",ROOFTOP
58,A & P Food Stores,54,"530 State Rt 515 Vernon,",NJ,07462,(973) 764-5350,41.1944643,-74.4834879,"530 Rt 515 Unit 1, Vernon Township, NJ 07462, USA",GEOMETRIC_CENTER
59,A & P Food Stores,55,"560 Valley Rd Wayne,",NJ,07470,(973) 305-1660,40.9309062,-74.22652699999999,"560 Valley Rd, Wayne, NJ 07470, USA",ROOFTOP
60,A & P Food Stores,56,"396 Demarest Ave Closter,",NJ,07624,(201) 784-7190,40.9697174,-73.9622352,"396 Demarest Ave, Closter, NJ 07624, USA",RANGE_INTERPOLATED
61,A & P Food Stores,57,"4 Memorial Dr Lodi,",NJ,07644,(973) 249-5160,40.8755599,-74.0858733,"4 Memorial Dr, Lodi, NJ 07644, USA",ROOFTOP
62,A & P Food Stores,58,"534 Bergen Blvd Palisades Park,",NJ,07650,(201) 944-0104,40.8480068,-73.9843846,"534 Bergen Blvd, Palisades Park, NJ 07650, USA",RANGE_INTERPOLATED
63,A & P Food Stores,59,"199 Kinderkamack Rd Park Ridge,",NJ,07656,(201) 391-9610,41.03642869999999,-74.0299204,"199 Kinderkamack Rd, Park Ridge, NJ 07656, USA",ROOFTOP
64,A & P Food Stores,60,"75 Mayhill St Saddle Brook,",NJ,07663,(201) 712-9191,40.8993197,-74.09224499999999,"75 Mayhill St, Saddle Brook, NJ 07663, USA",ROOFTOP
65,A & P Food Stores,61,"216 Old Tappan Rd Westwood,",NJ,07675,(201) 664-2954,41.0137933,-73.9837871,"216 Old Tappan Rd, Westwood, NJ 07675, USA",ROOFTOP
66,A & P Food Stores,62,"315 Pascack Rd Township Of Washington,",NJ,07676,(201) 666-2185,40.9865101,-74.0627834,"315 Pascack Rd, Township of Washington, NJ 07676, USA",ROOFTOP
67,A & P Food Stores,63,"520 Chestnut Ridge Rd Woodcliff Lake,",NJ,07677,(201) 476-9800,41.0430812,-74.0709523,"520 Chestnut Ridge Rd, Woodcliff Lake, NJ 07677, USA",ROOFTOP
68,A & P Food Stores,64,"State Highway 35 And New Bed Rd Belmar,",NJ,07719,(607) 336-5815,40.1813531,-74.0280397,"NJ-35, Belmar, NJ, USA",GEOMETRIC_CENTER
69,A & P Food Stores,65,"980 Shrewsbury Ave Eatontown,",NJ,07724,(732) 935-0996,40.3158698,-74.0698366,"980 Shrewsbury Ave, Eatontown, NJ 07724, USA",RANGE_INTERPOLATED
70,A & P Food Stores,66,"2101 State Route 35 Holmdel,",NJ,07733,(732) 671-7880,40.414708,-74.1443652,"2101 NJ-35, Holmdel, NJ 07733, USA",ROOFTOP
71,A & P Food Stores,67,"507 Prospect Ave Little Silver,",NJ,07739,(732) 530-7449,40.339079,-74.0403858,"507 Prospect Ave, Little Silver, NJ 07739, USA",ROOFTOP
72,A & P Food Stores,68,"79 Stone Ln Marlboro,",NJ,07746,(732) 946-8911,40.315663,-74.2753589,"79 Stone Ln, Marlboro Township, NJ 07746, USA",RANGE_INTERPOLATED
73,A & P Food Stores,69,"325 State Route 35 Matawan,",NJ,07747,(732) 441-7400,40.43754149999999,-74.2254528,"325 NJ-35, Cliffwood, NJ 07721, USA",ROOFTOP
74,A & P Food Stores,70,"128 State Route 94 Blairstown,",NJ,07825,(908) 362-7440,40.9872863,-74.9828852,"128 NJ-94, Blairstown, NJ 07825, USA",ROOFTOP
75,A & P Food Stores,71,"152 State Route 94 Blairstown,",NJ,07825,(908) 362-9388,40.98368960000001,-74.9970369,"152 NJ-94, Blairstown, NJ 07825, USA",ROOFTOP
76,A & P Food Stores,72,"431 County Road 513 Califon,",NJ,07830,(908) 832-5081,40.7266122,-74.8453217,"431 County Rd 513, Califon, NJ 07830, USA",ROOFTOP
77,A & P Food Stores,73,"125 W Main St Denville,",NJ,07834,(973) 586-0601,40.8949232,-74.48426959999999,"125 W Main St, Denville, NJ 07834, USA",ROOFTOP
78,A & P Food Stores,74,"293 Us Highway 206 Flanders,",NJ,07836,(973) 252-9360,40.8320854,-74.7074441,"293 US-206 #8, Flanders, NJ 07836, USA",ROOFTOP
79,A & P Food Stores,75,"148 Center Grove Rd Randolph,",NJ,07869,(973) 442-7950,40.8639488,-74.5698075,"148 Center Grove Rd, Randolph, NJ 07869, USA",ROOFTOP
80,A & P Food Stores,76,"580 N Main St Barnegat,",NJ,08005,(609) 660-2163,39.7687356,-74.21160309999999,"580 N Main St, Barnegat, NJ 08005, USA",ROOFTOP
81,A & P Food Stores,77,"56 Chambersbridge Rd Brick,",NJ,08723,(732) 920-6999,40.0585761,-74.1403622,"56 Chambersbridge Rd, Brick Township, NJ 08723, USA",ROOFTOP
82,A & P Food Stores,78,"State Hwy No 35 State Hwy Seaside Heights,",NJ,08751,(732) 223-1930,39.9489797,-74.07346969999999,"NJ-35, New Jersey, USA",GEOMETRIC_CENTER
83,A & P Food Stores,79,"State Hwy No 28 Bound Brook,",NJ,08805,(732) 223-1930,40.5672247,-74.5386808,"NJ-28, New Jersey, USA",GEOMETRIC_CENTER
84,A & P Food Stores,80,"49 Route 22 Clinton,",NJ,08809,(908) 735-5833,40.60743069999999,-74.4678465,"49 US-22, Green Brook Township, NJ 08812, USA",ROOFTOP
85,A & P Food Stores,81,"647 State Route 18 East Brunswick,",NJ,08816,(732) 651-8611,40.4319364,-74.3911852,"647 NJ-18, East Brunswick, NJ 08816, USA",ROOFTOP
86,A & P Food Stores,82,"431 County Hwy 513 Flemington,",NJ,08822,(908) 832-5081,40.5123258,-74.85933179999999,"Flemington, NJ 08822, USA",APPROXIMATE
87,A & P Food Stores,83,"1185 Amboy Ave Edison,",NJ,08837,(732) 906-1446,40.5365162,-74.346977,"1185 Amboy Ave, Edison, NJ 08837, USA",ROOFTOP
88,A & P Food Stores,84,"45 Pearl St Metuchen,",NJ,08840,(732) 549-2973,40.5414864,-74.3633751,"45 Pearl St, Metuchen, NJ 08840, USA",ROOFTOP
89,A & P Food Stores,85,"510 Milltown Rd North Brunswick,",NJ,08902,(732) 249-1707,40.4646458,-74.4510056,"510 Milltown Rd, North Brunswick Township, NJ 08902, USA",ROOFTOP
90,A & P Food Stores,86,"42 W 39th St New York,",NY,10018,(219) 641-6400,40.7522844,-73.98432199999999,"42 W 39th St, New York, NY 10018, USA",ROOFTOP
91,A & P Food Stores,87,"6400 Amboy Rd Staten Island,",NY,10309,(718) 966-8393,40.5221133,-74.21528959999999,"6400 Amboy Rd, Staten Island, NY 10309, USA",ROOFTOP
92,A & P Food Stores,88,"1511 Route 22 Brewster,",NY,10509,(845) 278-5282,41.4196815,-73.5778524,"1511 NY-22, Brewster, NY 10509, USA",ROOFTOP
93,A & P Food Stores,89,"Stoneleigh Ave Carmel,",NY,10512,(845) 225-5424,41.4036036,-73.66316979999999,"Stoneleigh Ave, Carmel Hamlet, NY 10512, USA",GEOMETRIC_CENTER
94,A & P Food Stores,90,"1905 Route 6 Carmel,",NY,10512,(845) 225-6649,41.4130236,-73.66916479999999,"1905 US-6, Carmel Hamlet, NY 10512, USA",ROOFTOP
95,A & P Food Stores,91,"2005 Albany Post Rd Croton On Hudson,",NY,10520,(914) 271-3497,41.228372,-73.9077825,"2005 Albany Post Rd, Croton-On-Hudson, NY 10520, USA",ROOFTOP
96,A & P Food Stores,92,"100 Route 22 Goldens Bridge,",NY,10526,(914) 232-9137,41.2932958,-73.6759706,"100 NY-22, Goldens Bridge, NY 10526, USA",ROOFTOP
97,A & P Food Stores,93,"123 Bedford Rd Katonah,",NY,10536,(914) 232-9712,41.2519589,-73.6837034,"123 Bedford Rd, Katonah, NY 10536, USA",RANGE_INTERPOLATED
98,A & P Food Stores,94,"805 Mamaroneck Ave Mamaroneck,",NY,10543,(914) 381-2870,40.9566943,-73.736845,"805 Mamaroneck Ave, Mamaroneck, NY 10543, USA",ROOFTOP
99,A & P Food Stores,95,"3131 E Main St Mohegan Lake,",NY,10547,(914) 526-0124,41.3097571,-73.8685193,"3131 E Main St, Mohegan Lake, NY 10547, USA",ROOFTOP
100,A & P Food Stores,96,"24 W Grand St Mount Vernon,",NY,10552,(914) 664-9398,40.92505939999999,-73.8375873,"24 W Grand St, Mt Vernon, NY 10552, USA",ROOFTOP
101,A & P Food Stores,97,"103 Knollwood Rd White Plains,",NY,10607,(914) 682-8639,41.0387184,-73.8067109,"103 Knollwood Rd, White Plains, NY 10607, USA",ROOFTOP
102,A & P Food Stores,98,"369 Tarrytown Rd White Plains,",NY,10607,(914) 684-8745,41.0418448,-73.7965926,"369 Tarrytown Rd, White Plains, NY 10607, USA",ROOFTOP
103,A & P Food Stores,99,"1214 Cedar St Tuckahoe,",NY,10707,(914) 961-9552,40.9522537,-73.8271544,"Cedar St, Tuckahoe, NY 10707, USA",GEOMETRIC_CENTER
104,A & P Food Stores,100,"12 Cedar St Bronxville,",NY,10708,(914) 779-0276,40.938992,-73.8339115,"12 Cedar St, Bronxville, NY 10708, USA",ROOFTOP
105,A & P Food Stores,101,"38 Ramapo Rd Garnerville,",NY,10923,(845) 429-1040,41.200886,-74.000616,"38 Ramapo Rd, Garnerville, NY 10923, USA",RANGE_INTERPOLATED
106,A & P Food Stores,102,"280 S Main St New City,",NY,10956,(845) 634-1633,41.1377089,-73.98970609999999,"280 S Main St, New City, NY 10956, USA",ROOFTOP
107,A & P Food Stores,103,"2820 Jerusalem Ave Bellmore,",NY,11710,(516) 785-0102,40.6919077,-73.5274409,"2820 Jerusalem Ave, North Bellmore, NY 11710, USA",ROOFTOP
108,A & P Food Stores,104,"722 Walt Whitman Rd Melville,",NY,11747,(631) 421-2245,40.8039698,-73.4111662,"722 Walt Whitman Rd, Melville, NY 11747, USA",ROOFTOP
109,A & P Food Stores,105,"1227 Route 52 Fishkill,",NY,12524,(845) 896-0933,41.5431246,-73.87859259999999,"1227 NY-52, Fishkill, NY 12524, USA",RANGE_INTERPOLATED
110,A & P Food Stores,106,"829 Route 82 Hopewell Junction,",NY,12533,(845) 227-0582,41.5807061,-73.8121786,"829 NY-82, Hopewell Junction, NY 12533, USA",ROOFTOP
111,A & P Food Stores,107,"3101 Route 22 Patterson,",NY,12563,(845) 878-1071,41.5169024,-73.5919397,"3101 NY-22, Patterson, NY 12563, USA",ROOFTOP
112,A & P Food Stores,108,"W Tioga Tunkhannock,",PA,18657,(570) 836-9695,41.540682,-75.955187,"W Tioga St, Tunkhannock, PA 18657, USA",GEOMETRIC_CENTER
113,A & P Food Stores,109,"1315 Seydler St Gonzales,",TX,78629,(830) 672-6422,29.5157005,-97.4383232,"1315 Seydler St, Gonzales, TX 78629, USA",ROOFTOP
114,A G Ferrari Foods,1,"1050 El Camino Real Belmont,",CA,94002,(650) 632-1655,37.51974999999999,-122.275535,"1050 El Camino Real, Belmont, CA 94002, USA",ROOFTOP
115,A G Ferrari Foods,2,"468 Castro St San Francisco,",CA,94114,(415) 255-6590,37.7614188,-122.435331,"468 Castro St, San Francisco, CA 94114, USA",ROOFTOP
116,A G Ferrari Foods,3,"200 Hamilton Ave Palo Alto,",CA,94301,(650) 752-0900,37.443922,-122.161247,"200 Hamilton Ave, Palo Alto, CA 94301, USA",ROOFTOP
117,A G Ferrari Foods,4,"2905 College Ave Berkeley,",CA,94705,(510) 849-2701,37.8581775,-122.2529371,"2905 College Ave, Berkeley, CA 94705, USA",ROOFTOP
118,Acme Markets,1,"200 Lantana Dr Hockessin,",DE,19707,(770) 932-4306,39.7745815,-75.711259,"200 Lantana Dr, Hockessin, DE 19707, USA",RANGE_INTERPOLATED
119,Acme Markets,2,"460 E Main St Middletown,",DE,19709,(773) 506-2800,39.4484377,-75.6977589,"460 E Main St, Middletown, DE 19709, USA",ROOFTOP
120,Acme Markets,3,"Creek Plz Pk Wilmington,",DE,19801,(800) 925-6278,39.7312603,-75.5451379,"Wilmington, DE 19801, USA",APPROXIMATE
121,Acme Markets,4,"Concord Pike Wilmington,",DE,19803,(781) 221-0144,39.8013678,-75.54801719999999,"Concord Pike, Talleyville, DE 19803, USA",GEOMETRIC_CENTER
122,Acme Markets,5,"1901 Concord Pike Wilmington,",DE,19803,(781) 237-9680,39.7877886,-75.545047,"1901 Concord Pike, Wilmington, DE 19803, USA",ROOFTOP
123,Acme Markets,6,"1401 N Dupont St Wilmington,",DE,19806,(781) 221-0144,39.7572081,-75.5637885,"1401 N Dupont St, Wilmington, DE 19806, USA",ROOFTOP
124,Acme Markets,7,"1308 Centerville Rd Wilmington,",DE,19808,(800) 607-6861,39.7340656,-75.6235365,"1308 Centerville Rd, Wilmington, DE 19808, USA",ROOFTOP
125,Acme Markets,8,"4720 Limestone Rd Wilmington,",DE,19808,(618) 875-5370,39.7400068,-75.6938026,"4720 Limestone Rd, Wilmington, DE 19808, USA",ROOFTOP
126,Acme Markets,9,"2084 Naamans Rd Wilmington,",DE,19810,(775) 586-1088,39.8237054,-75.5004354,"2084 Naamans Rd, Wilmington, DE 19810, USA",ROOFTOP
127,Acme Markets,10,"1103 S Central Ave Laurel,",DE,19956,(800) 492-4173,38.5485948,-75.5679706,"1103 S Central Ave, Laurel, DE 19956, USA",ROOFTOP
128,Acme Markets,11,"2315 Bel Air Rd Fallston,",MD,21047,(410) 877-3392,39.4924084,-76.3928413,"2315 Belair Rd, Fallston, MD 21047, USA",ROOFTOP
129,Acme Markets,12,"114 Talbot St Easton,",MD,21601,(410) 745-9819,38.7712439,-76.07336699999999,"114 Talbot St, Easton, MD 21601, USA",RANGE_INTERPOLATED
130,Acme Markets,13,"210 Marlboro Ave Easton,",MD,21601,(410) 822-7073,38.7799747,-76.0817606,"210 Marlboro Ave, Easton, MD 21601, USA",ROOFTOP
131,Acme Markets,14,"611 Railroad Ave Centreville,",MD,21617,(443) 262-9150,39.0399126,-76.05601759999999,"611 Railroad Ave, Centreville, MD 21617, USA",ROOFTOP
132,Acme Markets,15,"Kent Island Shopping Ctr Chestertown,",MD,21620,(410) 643-3173,38.97570109999999,-76.29608309999999,"1231 Shopping Center Rd, Stevensville, MD 21666, USA",ROOFTOP
133,Acme Markets,16,"711 Washington Ave Chestertown,",MD,21620,(410) 778-0563,39.2248741,-76.06892409999999,"711 Washington Ave, Chestertown, MD 21620, USA",GEOMETRIC_CENTER
134,Acme Markets,17,"114 Talbot Snt Claiborne,",MD,21624,(410) 745-9819,38.8376161,-76.2777285,"Claiborne, MD 21624, USA",APPROXIMATE
135,Acme Markets,18,"101 Big Elk Mall Elkton,",MD,21921,(410) 620-0602,39.5986223,-75.8198347,"101 Big Elk Mall, Elkton, MD 21921, USA",ROOFTOP
136,Acme Markets,19,"467 Allwood Rd Clifton,",NJ,07012,(973) 594-0590,40.8409885,-74.15803509999999,"467 Allwood Rd, Clifton, NJ 07012, USA",ROOFTOP
137,Acme Markets,20,"1319 Magie Ave Union,",NJ,07083,(908) 351-4029,40.67118980000001,-74.2531006,"1319 Magie Ave, Union, NJ 07083, USA",ROOFTOP
138,Acme Markets,21,"2 Garfield Ave Jersey City,",NJ,07305,(201) 432-7011,40.6854008,-74.09913039999999,"2 Garfield Ave, Jersey City, NJ 07305, USA",ROOFTOP
139,Acme Markets,22,"216 Garfield Ave Jersey City,",NJ,07305,(201) 432-7011,40.691482,-74.09205399999999,"216 Garfield Ave, Jersey City, NJ 07305, USA",ROOFTOP
140,Acme Markets,23,"Shrewsbury Plz Red Bank,",NJ,07701,(732) 542-4130,40.3146917,-74.06576199999999,"Shrewsbury Plaza, Shrewsbury, NJ 07702, USA",GEOMETRIC_CENTER
141,Acme Markets,24,"576 River Rd Fair Haven,",NJ,07704,(732) 530-7481,40.3606849,-74.0421465,"576 River Rd, Fair Haven, NJ 07704, USA",ROOFTOP
142,Acme Markets,25,"3241 Us Highway 9 Freehold,",NJ,07728,(732) 863-6501,40.219372,-74.2635993,"3241 U.S. 9, Freehold, NJ 07728, USA",ROOFTOP
143,Acme Markets,26,"616 Newman Springs Rd Lincroft,",NJ,07738,(732) 936-0668,40.3321004,-74.1192097,"616 Newman Springs Rd, Lincroft, NJ 07738, USA",ROOFTOP
144,Acme Markets,27,"PO Box 3010 Rumson,",NJ,07760,(843) 396-4234,40.372054,-73.99902689999999,"Rumson, NJ 07760, USA",APPROXIMATE
145,Acme Markets,28,"Us Highway 80 And Mount Hope Ave Dover,",NJ,07801,(856) 742-8700,40.8962458,-74.5515743,"Mt Hope Ave, Dover, NJ, USA",GEOMETRIC_CENTER
146,Acme Markets,29,"343 Mount Hope Ave Dover,",NJ,07801,(973) 989-8503,40.90388069999999,-74.5493564,"343 Mt Hope Ave, Dover, NJ 07801, USA",ROOFTOP
147,Acme Markets,30,"PO Box 3010 Denville,",NJ,07834,(843) 396-4234,40.8889758,-74.4818698,"Denville, NJ 07834, USA",APPROXIMATE
148,Acme Markets,31,"W Nelson St Newton,",NJ,07860,(973) 383-3211,41.0488547,-74.7570807,"W Nelson St, Newton, NJ 07860, USA",GEOMETRIC_CENTER
149,Acme Markets,32,"690 Millbrook Ave Randolph,",NJ,07869,(973) 895-2694,40.8270918,-74.5721415,"690 Millbrook Ave, Randolph, NJ 07869, USA",ROOFTOP
150,Acme Markets,33,"1252 Springfield Ave New Providence,",NJ,07974,(908) 464-6870,40.706513,-74.4049679,"1252 Springfield Ave, New Providence, NJ 07974, USA",RANGE_INTERPOLATED
151,Acme Markets,34,"9600 Long Beach Blvd Beach Haven,",NJ,08008,(609) 492-9718,39.6039189,-74.21160429999999,"9600 Long Beach Blvd, Long Beach Township, NJ 08008, USA",ROOFTOP
152,Acme Markets,35,"2200 Mount Holly Rd Burlington,",NJ,08016,(609) 386-8627,40.0471359,-74.8395645,"2200 Mt Holly Rd, Burlington, NJ 08016, USA",ROOFTOP
153,Acme Markets,36,"731 Delsea Dr N Glassboro,",NJ,08028,(856) 582-0305,39.7207704,-75.1167739,"731 Delsea Dr, Glassboro, NJ 08028, USA",ROOFTOP
154,Acme Markets,37,"Route 130 And Farnsworth Ave Willingboro,",NJ,08046,(609) 324-1246,40.139632,-74.7067332,"US-130 & Farnsworth Ave, Bordentown Township, NJ 08505, USA",GEOMETRIC_CENTER
155,Acme Markets,38,"71 Shawmont Ln Willingboro,",NJ,08046,(609) 835-4547,40.0513,-74.8880144,"71 Shawmont Ln, Willingboro, NJ 08046, USA",ROOFTOP
156,Acme Markets,39,"2091 Route 130 Willingboro,",NJ,08046,(609) 835-4764,40.0515719,-74.8913018,"2091 US-130, Willingboro, NJ 08046, USA",ROOFTOP
157,Acme Markets,40,"300 S Lenola Rd Maple Shade,",NJ,08052,(856) 608-8945,39.9478336,-74.9716579,"300 S Lenola Rd, Maple Shade Township, NJ 08052, USA",ROOFTOP
158,Acme Markets,41,"54 W Main St Maple Shade,",NJ,08052,(856) 779-9891,39.9551614,-75.0036404,"54 W Main St, Maple Shade Township, NJ 08052, USA",ROOFTOP
159,Acme Markets,42,"18 Broadway Pembtn Twp Medford,",NJ,08055,(609) 735-1605,39.9752482,-74.5808705,"18 Broadway St, Browns Mills, NJ 08015, USA",ROOFTOP
160,Acme Markets,43,"Sharp Run Plz Medford,",NJ,08055,(609) 953-7692,39.9031111,-74.8324943,"175 NJ-70, Medford, NJ 08055, USA",ROOFTOP
161,Acme Markets,44,"115 W Camden Ave Apt F1 Moorestown,",NJ,08057,(856) 778-5844,39.9576949,-74.9828395,"115 W Camden Ave F1, Moorestown, NJ 08057, USA",ROOFTOP
162,Acme Markets,45,"350 Young Ave Moorestown,",NJ,08057,(856) 778-5844,39.970439,-74.9176145,"350 Young Ave, Hainesport, NJ 08036, USA",ROOFTOP
163,Acme Markets,46,"119 Chester Ave Moorestown,",NJ,08057,(856) 866-0477,39.9661364,-74.9425424,"119 Chester Ave, Moorestown, NJ 08057, USA",RANGE_INTERPOLATED
164,Acme Markets,47,"251 N Broadway Pennsville,",NJ,08070,(323) 551-6884,39.6691471,-75.5070185,"251 N Broadway, Pennsville, NJ 08070, USA",ROOFTOP
165,Acme Markets,48,"Pennsville,",NJ,08070,(856) 678-4378,39.6199688,-75.50437610000002,"Pennsville, NJ 08070, USA",APPROXIMATE
166,Acme Markets,49,"1105 Route 130 S Riverton,",NJ,08077,(856) 303-1822,39.99910029999999,-74.991157,"1105 US-130, Cinnaminson, NJ 08077, USA",ROOFTOP
167,Acme Markets,50,"515 Cross Keys Rd Sicklerville,",NJ,08081,(856) 728-3674,39.744595,-74.9981324,"515 Berlin - Cross Keys Rd, Sicklerville, NJ 08081, USA",ROOFTOP
168,Acme Markets,51,"69 Rosalind Cir Sicklerville,",NJ,08081,(856) 728-7839,39.7475088,-74.9896188,"69 Rosalind Cir, Sicklerville, NJ 08081, USA",ROOFTOP
169,Acme Markets,52,"525 Cross Keys Rd Sicklerville,",NJ,08081,(856) 728-8791,39.744166,-74.99861170000001,"525 Berlin - Cross Keys Rd, Sicklerville, NJ 08081, USA",ROOFTOP
170,Acme Markets,53,"1619 Center Square Rd Swedesboro,",NJ,08085,(856) 467-3564,39.7546486,-75.3543174,"1619 Center Square Rd, Logan Township, NJ 08085, USA",RANGE_INTERPOLATED
171,Acme Markets,54,"Village Center Dr Swedesboro,",NJ,08085,(856) 467-8936,39.7573117,-75.35409729999999,"Village Center Dr, Logan Township, NJ 08085, USA",GEOMETRIC_CENTER
172,Acme Markets,55,"425 Route 9 S Tuckerton,",NJ,08087,(609) 296-0612,39.6026708,-74.35471509999999,"425 U.S. 9, Little Egg Harbor Township, NJ 08087, USA",GEOMETRIC_CENTER
173,Acme Markets,56,"631 Mantua Pike Woodbury,",NJ,08096,(856) 848-2850,39.8270559,-75.16128719999999,"631 Mantua Pike, Woodbury, NJ 08096, USA",ROOFTOP
174,Acme Markets,57,"857 Route 45 Woodstown,",NJ,08098,(856) 769-8655,39.6450067,-75.3411268,"857 NJ-45, Woodstown, NJ 08098, USA",ROOFTOP
175,Acme Markets,58,"Black Horse Pike Audubon,",NJ,08106,(609) 645-7553,39.8950031,-75.0915904,"E Black Horse Pike, Audubon, NJ 08106, USA",GEOMETRIC_CENTER
176,Acme Markets,59,"Black Horse Shopping Ctr Audubon,",NJ,08106,(609) 645-7553,39.8915011,-75.0866281,"130 E Black Horse Pike, Audubon, NJ 08106, USA",ROOFTOP
177,Acme Markets,60,"110 Black Horse Pike Audubon,",NJ,08106,(856) 616-2484,39.89121919999999,-75.0894744,"110 E Black Horse Pike, Audubon, NJ 08106, USA",ROOFTOP
178,Acme Markets,61,"400 E Cuthbert Blvd Collingswood,",NJ,08108,(856) 833-1601,39.9208857,-75.0557646,"400 E Cuthbert Blvd, Haddon Township, NJ 08108, USA",RANGE_INTERPOLATED
179,Acme Markets,62,"400 W Cuthbert Blvd Collingswood,",NJ,08108,(856) 858-2226,39.9073609,-75.0587512,"400 W Cuthbert Blvd, Haddon Township, NJ 08108, USA",ROOFTOP
180,Acme Markets,63,"676 White Horse Pike Absecon,",NJ,08201,(609) 407-0823,39.4357252,-74.5144376,"676 White Horse Pike, Absecon, NJ 08201, USA",ROOFTOP
181,Acme Markets,64,"63rd Landis Ave Cape May Court House,",NJ,08210,(609) 263-9006,39.1028632,-74.81413979999999,"Cape May County Park & Zoo, 707 U.S. 9, Cape May Court House, NJ 08210, USA",ROOFTOP
182,Acme Markets,65,"3428 Simpson Ave Ocean City,",NJ,08226,(609) 525-2160,39.25221430000001,-74.61488059999999,"3428 Simpson Ave, Ocean City, NJ 08226, USA",ROOFTOP
183,Acme Markets,66,"5493 Rinker Cir Sea Isle City,",NJ,08243,(609) 263-5270,40.3396344,-75.13607089999999,"5493 Rinker Cir, Doylestown, PA 18902, USA",ROOFTOP
184,Acme Markets,67,"411 Tudor Ter Somers Point,",NJ,08244,(609) 653-2936,39.3201532,-74.59833139999999,"411 Tudor Terrace, Somers Point, NJ 08244, USA",ROOFTOP
185,Acme Markets,68,"63rd And Landis Ave Wildwood,",NJ,08260,(609) 263-9006,39.141068,-74.702463,"Landis Ave at 63rd St, Sea Isle City, NJ 08243, USA",GEOMETRIC_CENTER
186,Acme Markets,69,"5300 Park Blvd Wildwood,",NJ,08260,(609) 522-7165,38.9840341,-74.83001449999999,"5300 Park Blvd, Wildwood, NJ 08260, USA",ROOFTOP
187,Acme Markets,70,"5200 Park Blvd Wildwood,",NJ,08260,(609) 522-7386,38.9848888,-74.83015160000001,"5200 Park Blvd, Wildwood, NJ 08260, USA",ROOFTOP
188,Acme Markets,71,"29 Cornwell Dr Bridgeton,",NJ,08302,(856) 455-0220,39.4600936,-75.2112585,"29 Cornwell Dr, Bridgeton, NJ 08302, USA",ROOFTOP
189,Acme Markets,72,"301 S Main Rd Vineland,",NJ,08360,(856) 507-1120,39.4793244,-74.99949509999999,"301 S Main Rd, Vineland, NJ 08360, USA",ROOFTOP
190,Acme Markets,73,"6 Cedar Ave Bordentown,",NJ,08505,(609) 298-0332,40.1673446,-74.6985433,"6 Cedar Ave, Bordentown, NJ 08505, USA",ROOFTOP
191,Acme Markets,74,"260 Dunns Mill Rd Bordentown,",NJ,08505,(609) 298-2014,40.1336237,-74.7258426,"260 Dunns Mill Rd, Bordentown, NJ 08505, USA",ROOFTOP
192,Acme Markets,75,"Us Hwy No 130 Bordentown,",NJ,08505,(609) 324-1246,40.1558046,-74.6969885,"130 US-130, Trenton, NJ 08620, USA",ROOFTOP
193,Acme Markets,76,"262 Us Highway 130 Bordentown,",NJ,08505,(609) 324-4432,40.1393484,-74.70855809999999,"262 US-130, Fieldsboro, NJ 08505, USA",ROOFTOP
194,Acme Markets,77,"Hightstown Rd Princeton Junction,",NJ,08550,(609) 452-1421,40.3119356,-74.6192734,"Princeton Hightstown Rd, West Windsor Township, NJ, USA",GEOMETRIC_CENTER
195,Acme Markets,78,"2091 Us Highway 130 Roebling,",NJ,08554,(609) 871-0670,40.1066455,-74.7842749,"2091 US-130, Roebling, NJ 08554, USA",RANGE_INTERPOLATED
196,Acme Markets,79,"4454 Black Horse Pike Trenton,",NJ,08610,(609) 625-5012,39.4513223,-74.648138,"4454 E Black Horse Pike, Mays Landing, NJ 08330, USA",ROOFTOP
197,Acme Markets,80,"3 Highway 33 Trenton,",NJ,08619,(609) 587-8801,40.2338625,-74.69842030000001,"NJ-33, Trenton, NJ 08619, USA",GEOMETRIC_CENTER
198,Acme Markets,81,"58 Hughes Ave Trenton,",NJ,08619,(609) 587-8801,40.2446604,-74.712102,"58 Hughes Ave, Hamilton Township, NJ 08619, USA",ROOFTOP
199,Acme Markets,82,"PO Box 3010 Trenton,",NJ,08619,(843) 396-4234,40.2482028,-74.69858909999999,"Trenton, NJ 08619, USA",APPROXIMATE
200,Acme Markets,83,"4400 S Broad St Trenton,",NJ,08620,(609) 888-9898,40.18190690000001,-74.6730375,"4400 S Broad St, Hamilton Township, NJ 08620, USA",ROOFTOP
201,Acme Markets,84,"953 Highway 33 Trenton,",NJ,08690,(609) 588-8021,40.2283968,-74.6709652,"953 NJ-33, Trenton, NJ 08690, USA",ROOFTOP
202,Acme Markets,85,"PO Box 3010 Lakewood,",NJ,08701,(843) 396-4234,40.0807404,-74.2061931,"Lakewood, NJ 08701, USA",APPROXIMATE
203,Acme Markets,86,"Main St Taylor Ave Manasquan,",NJ,08736,(732) 223-9622,40.1220268,-74.048735,"Taylor Ave & Main St, Manasquan, NJ 08736, USA",GEOMETRIC_CENTER
204,Acme Markets,87,"125 Bound Brook Rd Middlesex,",NJ,08846,(732) 968-2012,40.5866713,-74.4771993,"125 Bound Brook Rd, Middlesex, NJ 08846, USA",ROOFTOP
205,Acme Markets,88,"PO Box 3010 Middlesex,",NJ,08846,(843) 396-4234,40.575405,-74.505312,"Middlesex, NJ 08846, USA",APPROXIMATE
206,Acme Markets,89,"300 Ryders Ln Milltown,",NJ,08850,(732) 254-7900,40.4451436,-74.4244416,"300 Ryders Ln, East Brunswick, NJ 08816, USA",ROOFTOP
207,Acme Markets,90,"Piscataway,",NJ,08854,(732) 968-9136,40.554887,-74.4642861,"Piscataway, NJ 08854, USA",APPROXIMATE
208,Acme Markets,91,"2700 Gilchrist Rd Akron,",OH,44305,(330) 733-2861,41.062244,-81.4281525,"2700 Gilchrist Rd, Akron, OH 44305, USA",ROOFTOP
209,Acme Markets,92,"225 W End Blvd Richland,",PA,17087,(301) 271-9949,40.4496238,-75.36225440000001,"225 N West End Blvd, Quakertown, PA 18951, USA",RANGE_INTERPOLATED
210,Acme Markets,93,"101 Byers Dr Concord,",PA,17217,(610) 361-9523,39.8842881,-75.5278519,"101 Byers Dr, Glen Mills, PA 19342, USA",ROOFTOP
211,Acme Markets,94,"Plaza 15 Lewisburg,",PA,17837,(570) 523-7411,40.9813966,-76.88531139999999,"7445 Westbranch Hwy, Lewisburg, PA 17837, USA",ROOFTOP
212,Acme Markets,95,"480 N Main St Doylestown,",PA,18901,(270) 443-8806,40.3225165,-75.1325557,"480 N Main St, Doylestown, PA 18901, USA",ROOFTOP
213,Acme Markets,96,"505 W Butler Ave Chalfont,",PA,18914,(305) 751-4075,40.2699056,-75.2265749,"505 W Butler Ave, Chalfont, PA 18914, USA",ROOFTOP
214,Acme Markets,97,"Rt 611 Main St Quakertown,",PA,18951,(270) 442-2043,40.4313821,-75.3449092,"611 S Main St, Quakertown, PA 18951, USA",RANGE_INTERPOLATED
215,Acme Markets,98,"225 N West End Blvd Quakertown,",PA,18951,(301) 271-9949,40.4496238,-75.36225440000001,"225 N West End Blvd, Quakertown, PA 18951, USA",RANGE_INTERPOLATED
216,Acme Markets,99,"105 Street Rd Southampton,",PA,18966,(305) 361-7200,40.1815552,-75.0553345,"105 Street Rd, Southampton, PA 18966, USA",RANGE_INTERPOLATED
217,Acme Markets,100,"808 E Street Rd Warminster,",PA,18974,(281) 256-8038,40.1852569,-75.059837,"808 E Street Rd, Warminster, PA 18974, USA",ROOFTOP
218,Acme Markets,101,"1991 Sproul Rd Broomall,",PA,19008,(610) 325-2880,39.9594742,-75.35512,"1991 Sproul Rd, Broomall, PA 19008, USA",ROOFTOP
219,Acme Markets,102,"1991 Sproul Rd Ste 11 Broomall,",PA,19008,(610) 325-2880,39.9594742,-75.35512,"1991 Sproul Rd #11, Broomall, PA 19008, USA",ROOFTOP
220,Acme Markets,103,"417 Farnsworth Dr Broomall,",PA,19008,(610) 356-3504,39.9655891,-75.3372323,"417 Farnsworth Dr, Broomall, PA 19008, USA",ROOFTOP
221,Acme Markets,104,"Harbison Avenue And Roosevel Blvd Philadelphia,",PA,19019,(609) 567-4024,40.0347746,-75.06351699999999,"6501 Harbison Ave, Philadelphia, PA 19149, USA",ROOFTOP
222,Acme Markets,105,"2301 Neshaminy Blvd Bensalem,",PA,19020,(304) 442-2172,40.1437324,-74.9325388,"2301 Neshaminy Blvd, Bensalem, PA 19020, USA",RANGE_INTERPOLATED
223,Acme Markets,106,"PO Box 3010 Bensalem,",PA,19020,(843) 396-4234,40.09944249999999,-74.9325683,"Eddington, PA 19020, USA",APPROXIMATE
224,Acme Markets,107,"1640 Bethlehem Pike Flourtown,",PA,19031,(305) 207-0481,40.1070789,-75.2112585,"1640 Bethlehem Pike, Flourtown, PA 19031, USA",ROOFTOP
225,Acme Markets,108,"124 Morton Ave Folsom,",PA,19033,(610) 237-3800,39.8848787,-75.3282815,"124 Morton Ave, Folsom, PA 19033, USA",ROOFTOP
226,Acme Markets,109,"Glen Riddle Lima,",PA,19037,(610) 459-8345,39.9049401,-75.3885344,"GLEN RDL LIMA, PA 19037, USA",APPROXIMATE
227,Acme Markets,110,"323 Old York Rd Jenkintown,",PA,19046,(305) 245-1405,40.09177320000001,-75.12516670000001,"323 Old York Rd, Jenkintown, PA 19046, USA",ROOFTOP
228,Acme Markets,111,"100 Woodbine Ave Feasterville Trevose,",PA,19053,(301) 689-6847,40.1544957,-74.9925362,"100 Woodbine Ave, Feasterville-Trevose, PA 19053, USA",RANGE_INTERPOLATED
229,Acme Markets,112,"105 E Street Rd Feasterville Trevose,",PA,19053,(305) 361-7200,40.1474543,-74.99965490000001,"105 E Street Rd, Feasterville-Trevose, PA 19053, USA",ROOFTOP
230,Acme Markets,113,"6800 New Falls Rd Levittown,",PA,19057,(305) 541-0024,40.151836,-74.85710949999999,"6800 New Falls Rd, Levittown, PA 19057, USA",ROOFTOP
231,Acme Markets,114,"3140 William Rd Marcus Hook,",PA,19061,(610) 361-9523,39.845923,-75.46673299999999,"3140 William Rd, Garnet Valley, PA 19060, USA",ROOFTOP
232,Acme Markets,115,"263 Glen Riddle Rd Media,",PA,19063,(610) 358-4708,39.8974828,-75.4313773,"263 Glen Riddle Rd, Media, PA 19063, USA",ROOFTOP
233,Acme Markets,116,"274 Glen Riddle Rd Media,",PA,19063,(610) 361-9735,39.89567359999999,-75.4316477,"274 Glen Riddle Rd, Media, PA 19063, USA",ROOFTOP
234,Acme Markets,117,"527 E Baltimore Pike Media,",PA,19063,(610) 565-6480,39.9159687,-75.3786542,"527 E Baltimore Pike, Media, PA 19063, USA",ROOFTOP
235,Acme Markets,118,"545 W Trenton Ave Morrisville,",PA,19067,(281) 375-5067,40.2109897,-74.7940162,"545 W Trenton Ave, Morrisville, PA 19067, USA",ROOFTOP
236,Acme Markets,119,"829 Montgomery Ave Narberth,",PA,19072,(610) 688-1738,40.01102,-75.2582059,"829 Montgomery Ave, Penn Valley, PA 19072, USA",ROOFTOP
237,Acme Markets,120,"3950 W Chester Pike Newtown Square,",PA,19073,(610) 353-8018,39.9855306,-75.4159222,"3950 West Chester Pike, Newtown Square, PA 19073, USA",RANGE_INTERPOLATED
238,Acme Markets,121,"21 Morton Ave Ridley Park,",PA,19078,(610) 586-2052,39.8788828,-75.31959479999999,"21 Morton Ave, Ridley Park, PA 19078, USA",ROOFTOP
239,Acme Markets,122,"1130 Chester Pike Sharon Hill,",PA,19079,(610) 522-1334,39.9096415,-75.2749298,"1130 Chester Pike, Sharon Hill, PA 19079, USA",ROOFTOP
240,Acme Markets,123,"Sharon Hill,",PA,19079,(610) 586-2052,39.9065017,-75.27157319999999,"Sharon Hill, PA 19079, USA",APPROXIMATE
241,Acme Markets,124,"801 Lawson Ave Havertown,",PA,19083,(610) 853-1308,39.9816975,-75.28495439999999,"801 Lawson Ave, Havertown, PA 19083, USA",RANGE_INTERPOLATED
242,Acme Markets,125,"567 Sproul Rd Villanova,",PA,19085,(610) 325-2880,40.02180540000001,-75.3691248,"567 Sproul Rd, Villanova, PA 19085, USA",RANGE_INTERPOLATED
243,Acme Markets,126,"700 W Lancaster Ave Wayne,",PA,19087,(610) 341-0951,40.0453962,-75.407701,"700 W Lancaster Ave, Devon, PA 19333, USA",ROOFTOP
244,Acme Markets,127,"311 E Lancaster Ave Wayne,",PA,19087,(610) 971-9074,40.0445182,-75.3799197,"311 E Lancaster Ave, Wayne, PA 19087, USA",RANGE_INTERPOLATED
245,Acme Markets,128,"Philadelphia,",PA,19101,(800) 242-1227,39.9522665,-75.1625181,"Philadelphia, PA 19101, USA",APPROXIMATE
246,Acme Markets,129,"6640 Oxford Ave Philadelphia,",PA,19111,(303) 674-6625,40.0503302,-75.0869393,"6640 Oxford Ave, Philadelphia, PA 19111, USA",ROOFTOP
247,Acme Markets,130,"920 Red Lion Rd Philadelphia,",PA,19115,(302) 478-8237,40.1006832,-75.0267757,"920 Red Lion Rd, Philadelphia, PA 19115, USA",ROOFTOP
248,Acme Markets,131,"7710 Germantown Ave Philadelphia,",PA,19118,(254) 629-1667,40.0678224,-75.1980974,"7710 Germantown Ave, Philadelphia, PA 19118, USA",RANGE_INTERPOLATED
249,Acme Markets,132,"7010 Germantown Ave Philadelphia,",PA,19119,(253) 874-0166,40.056677,-75.1894664,"7010 Germantown Ave, Philadelphia, PA 19119, USA",ROOFTOP
250,Acme Markets,133,"6064 Ridge Ave Philadelphia,",PA,19128,(281) 540-8187,40.032989,-75.2149396,"6064 Ridge Ave, Philadelphia, PA 19128, USA",ROOFTOP
251,Acme Markets,134,"8600 Ridge Ave Philadelphia,",PA,19128,(281) 873-6651,40.063876,-75.23661129999999,"8600 Ridge Ave, Philadelphia, PA 19128, USA",ROOFTOP
252,Acme Markets,135,"5927 Ridge Ave Philadelphia,",PA,19128,(281) 879-4889,40.0308633,-75.2121268,"5927 Ridge Ave, Philadelphia, PA 19128, USA",ROOFTOP
253,Acme Markets,136,"1901 Johnston St Philadelphia,",PA,19145,(270) 388-7341,39.9169587,-75.1802563,"1901 Johnston St, Philadelphia, PA 19145, USA",ROOFTOP
254,Acme Markets,137,"1400 E Passyunk Ave Philadelphia,",PA,19147,(281) 540-8838,39.9322933,-75.16229050000001,"1400 E Passyunk Ave, Philadelphia, PA 19147, USA",ROOFTOP
255,Acme Markets,138,"6601 Roosevelt Blvd Philadelphia,",PA,19149,(815) 838-8222,40.0356996,-75.0626661,"6601 Roosevelt Blvd, Philadelphia, PA 19149, USA",ROOFTOP
256,Acme Markets,139,"8200 Roosevelt Blvd Philadelphia,",PA,19152,(270) 442-2043,40.0602891,-75.0452345,"8200 Roosevelt Blvd, Philadelphia, PA 19152, USA",ROOFTOP
257,Acme Markets,140,"Island Ave Philadelphia,",PA,19153,(281) 934-2462,39.898585,-75.237983,"Island Ave, Philadelphia, PA 19153, USA",GEOMETRIC_CENTER
258,Acme Markets,141,"100 Dickinson Dr Chadds Ford,",PA,19317,(610) 459-8378,39.8789058,-75.5490043,"100 Dickinson Dr, Chadds Ford, PA 19317, USA",ROOFTOP
259,Acme Markets,142,"111 W Lincoln Hwy Exton,",PA,19341,(610) 594-1300,40.028121,-75.62878049999999,"111 W Lincoln Hwy, Exton, PA 19341, USA",RANGE_INTERPOLATED
260,Acme Markets,143,"Glen Mills,",PA,19342,(610) 358-4872,39.9016273,-75.5103484,"Glen Mills, PA, USA",APPROXIMATE
261,Acme Markets,144,"4201 Fox Pointe Ct Glen Mills,",PA,19342,(610) 361-9278,39.866582,-75.53611300000001,"4201 Fox Pointe Ct, Glen Mills, PA 19342, USA",ROOFTOP
262,Acme Markets,145,"101 Byers Dr Glen Mills,",PA,19342,(610) 361-9523,39.8842881,-75.5278519,"101 Byers Dr, Glen Mills, PA 19342, USA",ROOFTOP
263,Acme Markets,146,"2 Cherry Cir Glen Mills,",PA,19342,(610) 361-9615,39.857808,-75.522418,"2 Cherry Cir, Glen Mills, PA 19342, USA",ROOFTOP
264,Acme Markets,147,"1306 Chevers Dr Glen Mills,",PA,19342,(610) 459-8325,39.8596064,-75.54107719999999,"1306 Chevers Dr, Glen Mills, PA 19342, USA",RANGE_INTERPOLATED
265,Acme Markets,148,"507 Coventry Ln Glen Mills,",PA,19342,(610) 558-3658,39.8946852,-75.48326519999999,"Crier in the Country Ln, Chester Heights, PA 19342, USA",GEOMETRIC_CENTER
266,Acme Markets,149,"75 Valley Stream Pkwy Malvern,",PA,19355,(610) 889-4000,40.056877,-75.5175703,"75 Valley Stream Pkwy, Malvern, PA 19355, USA",ROOFTOP
267,Acme Markets,150,"PO Box 3010 Malvern,",PA,19355,(843) 396-4234,40.0362184,-75.5138118,"Malvern, PA 19355, USA",APPROXIMATE
268,Acme Markets,151,"2176 Baltimore Pike Oxford,",PA,19363,(610) 932-4560,39.77326679999999,-75.9837866,"2176 Baltimore Pike, Oxford, PA 19363, USA",ROOFTOP
269,Acme Markets,152,"372 Brinton Lake Rd Thornton,",PA,19373,(610) 361-8042,39.8836171,-75.5360745,"372 Brinton Lake Rd, Glen Mills, PA 19342, USA",RANGE_INTERPOLATED
270,Acme Markets,153,"770 Miles Rd West Chester,",PA,19380,(610) 429-5290,39.963994,-75.629285,"770 Miles Rd, West Chester, PA 19380, USA",ROOFTOP
271,Acme Markets,154,"907 Paoli Pike West Chester,",PA,19380,(610) 431-4726,39.9698175,-75.5872352,"907 Paoli Pike, West Chester, PA 19380, USA",ROOFTOP
272,Acme Markets,155,"West Chester,",PA,19380,(610) 444-4909,39.9606643,-75.6054882,"West Chester, PA, USA",APPROXIMATE
273,Acme Markets,156,"431 Keebler Rd King Of Prussia,",PA,19406,(610) 489-2578,40.1010162,-75.3808627,"431 Keebler Rd, King of Prussia, PA 19406, USA",ROOFTOP
274,Acme Markets,157,"320 W Dekalb Pike King Of Prussia,",PA,19406,(610) 768-4100,40.093878,-75.3709126,"320 W Dekalb Pike, King of Prussia, PA 19406, USA",ROOFTOP
275,Acme Markets,158,"20 Sharon Ln Collegeville,",PA,19426,(610) 409-2731,40.1670986,-75.4505179,"20 Sharon Ln, Collegeville, PA 19426, USA",ROOFTOP
276,Acme Markets,159,"Collegeville,",PA,19426,(800) 238-2727,40.1856597,-75.451571,"Collegeville, PA 19426, USA",APPROXIMATE
277,Acme Markets,160,"7 Av Conshohocken,",PA,19428,(610) 825-6171,40.0811293,-75.3052146,"W 7th Ave, Conshohocken, PA 19428, USA",GEOMETRIC_CENTER
278,Acme Markets,161,"1150 W Main St Lansdale,",PA,19446,(276) 236-2841,40.2490627,-75.299037,"1150 W Main St, Lansdale, PA 19446, USA",ROOFTOP
279,Acme Markets,162,"Star St Mont Clare,",PA,19453,(610) 935-7791,40.1389933,-75.50241100000001,"Mont Clare, PA 19453, USA",APPROXIMATE
280,Acme Markets,163,"31 W Ridge Pike Royersford,",PA,19468,(610) 489-2490,40.2160131,-75.5016594,"31 W Ridge Pike, Royersford, PA 19468, USA",ROOFTOP
281,Acme Markets,164,"222 Main St Schwenksville,",PA,19473,(610) 489-4233,40.2479842,-75.45791280000002,"222 Main St, Schwenksville, PA 19473, USA",ROOFTOP
282,Acme Markets,165,"800 E Main St Wytheville,",VA,24382,(636) 928-1623,36.954023,-81.0745969,"800 E Main St, Wytheville, VA 24382, USA",ROOFTOP
283,African and Caribbean Supermarket,1,"1132 E 3300 S Salt Lake City,",UT,84106,(801) 484-6712,40.6995594,-111.8588331,"1132 E 3300 S, Salt Lake City, UT 84106, USA",ROOFTOP
284,African and Caribbean Supermarket,2,"755 E 3300 S Salt Lake City,",UT,84106,(801) 484-6712,40.70017,-111.8693197,"755 E 3300 S, Millcreek, UT 84106, USA",ROOFTOP
285,AG Ferrari Foods,1,"304 W El Camino Real Sunnyvale,",CA,94087,(408) 524-4000,37.368188,-122.035626,"304 W El Camino Real, Sunnyvale, CA 94087, USA",ROOFTOP
286,AG Ferrari Foods,2,"3490 California St San Francisco,",CA,94118,(415) 923-4470,37.7868413,-122.4515705,"3490 California St, San Francisco, CA 94118, USA",ROOFTOP
287,AG Ferrari Foods,3,"23 Lafayette Cir Lafayette,",CA,94549,(925) 299-8040,37.8914601,-122.1199837,"23 Lafayette Cir, Lafayette, CA 94549, USA",ROOFTOP
288,AG Ferrari Foods,4,"14234 Catalina St San Leandro,",CA,94577,(510) 357-5441,37.6972026,-122.1726819,"14234 Catalina St, San Leandro, CA 94577, USA",ROOFTOP
289,AG Ferrari Foods,5,"107 Corte Madera Town Ctr Corte Madera,",CA,94925,(415) 927-4347,37.9276237,-122.5170799,"100 Corte Madera Town Center, Corte Madera, CA 94925, USA",ROOFTOP
290,Agro Foods,1,"256 W Mashta Dr Key Biscayne,",FL,33149,(860) 274-7459,25.6862018,-80.1681175,"256 W Mashta Dr, Key Biscayne, FL 33149, USA",ROOFTOP
291,Agro Foods,2,"299 Harbor Dr Key Biscayne,",FL,33149,(860) 274-7215,25.6956433,-80.1708752,"299 Harbor Dr, Key Biscayne, FL 33149, USA",ROOFTOP
292,Aguada Supermarket Incorporated,1,"249 Columbus Ave New York,",NY,10023,(718) 855-1714,40.7769826,-73.9788067,"249 Columbus Ave, New York, NY 10023, USA",ROOFTOP
293,Aguada Supermarket Incorporated,2,"149 Columbia Hts Brooklyn,",NY,11201,(718) 855-1714,40.6979328,-73.9962966,"149 Columbia Heights, Brooklyn, NY 11201, USA",ROOFTOP
294,Aguada Supermarket Incorporated,3,"249 Columbia Hts Brooklyn,",NY,11201,(718) 855-1714,40.696439,-73.9972183,"249 Columbia Heights, Brooklyn, NY 11201, USA",RANGE_INTERPOLATED
295,Ajs Fine Foods,1,"5017 N Central Ave Phoenix,",AZ,85012,(602) 230-7091,33.5099424,-112.0718095,"5017 N Central Ave, Phoenix, AZ 85012, USA",ROOFTOP
296,Ajs Fine Foods,2,"13226 N 7th St Phoenix,",AZ,85022,(602) 863-3500,33.6063245,-112.0664768,"13226 N 7th St, Phoenix, AZ 85022, USA",ROOFTOP
297,Ajs Fine Foods,3,"13625 S 48th St Apt 1211 Phoenix,",AZ,85044,(480) 705-5595,33.3232715,-111.9783488,"13625 S 48th St #1211, Phoenix, AZ 85044, USA",ROOFTOP
298,Ajs Fine Foods,4,"7131 W Ray Rd Chandler,",AZ,85226,(480) 705-0186,33.3181459,-111.9657564,"7131 W Ray Rd, Chandler, AZ 85226, USA",ROOFTOP
299,Ajs Fine Foods,5,"4771 W Toledo St Chandler,",AZ,85226,(480) 705-5323,33.306422,-111.9241399,"4771 W Toledo St, Chandler, AZ 85226, USA",ROOFTOP
300,Ajs Fine Foods,6,"4929 W Boston St Chandler,",AZ,85226,(480) 705-5614,33.3007268,-111.9278661,"4929 W Boston St, Chandler, AZ 85226, USA",ROOFTOP
301,Ajs Fine Foods,7,"Grocery Cor Gilbert,",AZ,85233,(480) 507-7280,33.3339574,-111.8083728,"855 W Warner Rd, Gilbert, AZ 85233, USA",ROOFTOP
302,Ajs Fine Foods,8,"1237 W Seashore Dr Gilbert,",AZ,85233,(480) 705-5544,33.3424856,-111.8169644,"1237 W Seashore Dr, Gilbert, AZ 85233, USA",ROOFTOP
303,Ajs Fine Foods,9,"453 E Mead Dr Chandler,",AZ,85249,(480) 705-0270,33.2365778,-111.834734,"453 E Mead Dr, Chandler, AZ 85249, USA",ROOFTOP
304,Ajs Fine Foods,10,"31311 N Scottsdale Rd Scottsdale,",AZ,85262,(480) 575-6200,33.7685401,-111.923956,"31311 N Scottsdale Rd, Scottsdale, AZ 85266, USA",ROOFTOP
305,Akins Natural Food,1,"2913 Sw 29th St Topeka,",KS,66614,(785) 228-9131,39.01412560000001,-95.71496929999999,"2913 SW 29th St, Topeka, KS 66614, USA",ROOFTOP
306,Akins Natural Food,2,"1344 E Brookline,",MO,65619,(417) 887-5985,37.1415852,-93.3993751,"Battlefield, MO 65619, USA",APPROXIMATE
307,Akins Natural Food,3,"1344 E Battlefield St Springfield,",MO,65804,(417) 887-5985,37.1585898,-93.2729114,"1344 Battlefield Rd, Springfield, MO 65804, USA",ROOFTOP
308,Akins Natural Food,4,"Meridian Park Center 6900 O Lincoln,",NE,68507,(402) 466-5713,40.8145961,-96.6256066,"1248 E O St # 1031, Lincoln, NE 68508, USA",ROOFTOP
309,Akins Natural Food,5,"6900 O St Ste 100 Lincoln,",NE,68510,(402) 466-5713,40.8145441,-96.6271493,"6900 O St #100, Lincoln, NE 68510, USA",ROOFTOP
310,Akins Natural Food,6,"Kilpatrick Tpke Oklahoma City,",OK,73101,(405) 418-4305,35.6091613,-97.57077149999999,"John Kilpatrick Turnpike, Oklahoma City, OK, USA",GEOMETRIC_CENTER
311,Akins Natural Food,7,"2924 Nw 63rd St Oklahoma City,",OK,73116,(405) 843-3033,35.535457,-97.56675899999999,"2924 NW 63rd St, Oklahoma City, OK 73116, USA",ROOFTOP
312,Akins Natural Food,8,"E 31st St Tulsa,",OK,74135,(918) 742-6630,36.1187879,-95.9249253,"E 31st St, Tulsa, OK 74135, USA",GEOMETRIC_CENTER
313,Akins Natural Food,9,"3321 E 31st St Tulsa,",OK,74135,(918) 742-8341,36.1195734,-95.9388657,"3321 E 31st St, Tulsa, OK 74135, USA",ROOFTOP
314,Akins Natural Food,10,"7807 E 51st St Tulsa,",OK,74145,(918) 663-4137,36.0913213,-95.8897794,"7807 E 51st St, Tulsa, OK 74145, USA",ROOFTOP
315,AL & James Foods,1,"309 N Mill St Fertile,",MN,56540,(352) 751-0301,47.5362074,-96.2804997,"309 N Mill St, Fertile, MN 56540, USA",ROOFTOP
316,AL & James Foods,2,"PO Box 565 Fertile,",MN,56540,(352) 787-0440,47.5360765,-96.2803328,"Fertile, MN 56540, USA",APPROXIMATE
317,AL & James Foods,3,"401 N Milt Phillips Ave Seminole,",OK,74868,(405) 382-2348,35.2268311,-96.67135499999999,"401 N Milt Phillips Ave, Seminole, OK 74868, USA",ROOFTOP
318,Al's Supermarket,1,"7200 Nw 2nd Ave Miami,",FL,33150,(877) 932-7948,25.840989,-80.20097489999999,"7200 NW 2nd Ave, Miami, FL 33150, USA",ROOFTOP
319,Al's Supermarket,2,"1340 W State Road 2 La Porte,",IN,46350,(360) 424-0467,41.5990706,-86.7345649,"1340 W State Rd 2, La Porte, IN 46350, USA",ROOFTOP
320,Al's Supermarket,3,"702 E Lincolnway La Porte,",IN,46350,(401) 726-5150,41.6179504,-86.7055572,"702 E Lincolnway, La Porte, IN 46350, USA",ROOFTOP
321,Al's Supermarket,4,"2600 Franklin St Michigan City,",IN,46360,(386) 755-2427,41.7006446,-86.8923506,"2600 Franklin St, Michigan City, IN 46360, USA",ROOFTOP
322,Al's Supermarket,5,"100 Commerce Sq Michigan City,",IN,46360,(401) 823-1820,41.720845,-86.901562,"100 Commerce Square, Michigan City, IN 46360, USA",ROOFTOP
323,Albertsons,1,"3710 N State Line Ave Texarkana,",AR,71854,(870) 773-5521,33.4592826,-94.04184459999999,"3710 N State Line Ave, Texarkana, AR 71854, USA",ROOFTOP
324,Albertsons,2,"8035 N 19th Ave Phoenix,",AZ,85021,(602) 678-0594,33.5543194,-112.0981242,"8035 N 19th Ave, Phoenix, AZ 85021, USA",ROOFTOP
325,Albertsons,3,"10665 N Tatum Blvd Phoenix,",AZ,85028,(480) 443-4286,33.5839771,-111.9743265,"10665 N Tatum Blvd, Phoenix, AZ 85028, USA",ROOFTOP
326,Albertsons,4,"18411 N Cave Creek Rd Phoenix,",AZ,85032,(602) 494-7388,33.6536213,-112.0296287,"18411 N Cave Creek Rd, Phoenix, AZ 85032, USA",ROOFTOP
327,Albertsons,5,"4747 E Greenway Rd Phoenix,",AZ,85032,(602) 788-6005,33.6245573,-111.9789958,"4747 E Greenway Rd, Phoenix, AZ 85032, USA",ROOFTOP
328,Albertsons,6,"7333 W Thomas Rd Phoenix,",AZ,85033,(877) 932-7948,33.4774532,-112.2188417,"7333 W Thomas Rd, Phoenix, AZ 85033, USA",ROOFTOP
329,Albertsons,7,"3130 W Carefree Hwy Phoenix,",AZ,85086,(623) 582-2743,33.7999466,-112.1272796,"3130 W Carefree Hwy, Phoenix, AZ 85086, USA",ROOFTOP
330,Albertsons,8,"1951 W Baseline Rd Mesa,",AZ,85202,(480) 456-4850,33.3774147,-111.8761418,"1951 W Baseline Rd, Mesa, AZ 85202, USA",ROOFTOP
331,Albertsons,9,"325 S Power Rd Mesa,",AZ,85206,(480) 924-9001,33.4094867,-111.6823752,"325 S Power Rd, Mesa, AZ 85206, USA",ROOFTOP
332,Albertsons,10,"9243 E Baseline Rd Mesa,",AZ,85209,(480) 986-4660,33.3777578,-111.6334672,"9243 E Baseline Rd, Mesa, AZ 85209, USA",ROOFTOP
333,Albertsons,11,"325 W Apache Trl Apache Junction,",AZ,85220,(480) 983-1129,33.4138646,-111.5494851,"325 Apache Trail, Apache Junction, AZ 85120, USA",ROOFTOP
334,Albertsons,12,"1116 E Florence Blvd Casa Grande,",AZ,85222,(520) 421-9796,32.8808169,-111.7392946,"1116 E Florence Blvd, Casa Grande, AZ 85122, USA",ROOFTOP
335,Albertsons,13,"3145 S Alma School Rd Chandler,",AZ,85248,(480) 899-7102,33.2606668,-111.8570449,"3145 S Alma School Rd, Chandler, AZ 85248, USA",ROOFTOP
336,Albertsons,14,"2935 E Riggs Rd Chandler,",AZ,85249,(480) 802-1980,33.2177055,-111.7907174,"2935 East Riggs Road, Chandler, AZ 85249, USA",ROOFTOP
337,Albertsons,15,"6965 N Hayden Rd Scottsdale,",AZ,85250,(480) 991-9557,33.5374383,-111.9062309,"6965 N Hayden Rd, Scottsdale, AZ 85250, USA",ROOFTOP
338,Albertsons,16,"2785 N Scottsdale Rd Scottsdale,",AZ,85257,(480) 947-7574,33.478893,-111.9242098,"2785 N Scottsdale Rd, Scottsdale, AZ 85257, USA",ROOFTOP
339,Albertsons,17,"11475 E Via Linda Scottsdale,",AZ,85259,(480) 767-0819,33.5890355,-111.833849,"11475 E Va Linda, Scottsdale, AZ 85259, USA",ROOFTOP
340,Albertsons,18,"15660 N Frank Lloyd Wright Blvd Scottsdale,",AZ,85260,(480) 451-9825,33.6285074,-111.8872273,"15660 N Frank Lloyd Wright Blvd, Scottsdale, AZ 85260, USA",ROOFTOP
341,Albertsons,19,"34442 N Scottsdale Rd Scottsdale,",AZ,85266,(480) 595-9419,33.7977889,-111.9292843,"34442 N Scottsdale Rd, Scottsdale, AZ 85266, USA",ROOFTOP
342,Albertsons,20,"750 E Guadalupe Rd Tempe,",AZ,85283,(480) 820-8166,33.3650342,-111.9300785,"750 E Guadalupe Rd, Tempe, AZ 85283, USA",ROOFTOP
343,Albertsons,21,"861 E Warner Rd Gilbert,",AZ,85296,(480) 558-0105,33.3337859,-111.7717134,"861 E Warner Rd, Gilbert, AZ 85296, USA",ROOFTOP
344,Albertsons,22,"5040 W Cactus Rd Glendale,",AZ,85304,(602) 843-1871,33.5978364,-112.1671464,"5040 W Cactus Rd, Glendale, AZ 85304, USA",ROOFTOP
345,Albertsons,23,"12970 W Indian School Rd Litchfield Park,",AZ,85340,(623) 535-7153,33.4947934,-112.3381544,"12970 W Indian School Rd, Litchfield Park, AZ 85340, USA",ROOFTOP
346,Albertsons,24,"14551 W Grand Ave Surprise,",AZ,85374,(623) 546-8038,33.656189,-112.3761538,"14551 W Grand Ave, Surprise, AZ 85374, USA",ROOFTOP
347,Albertsons,25,"16750 W Bell Rd Surprise,",AZ,85374,(623) 546-8246,33.6402303,-112.4197,"16750 W Bell Rd, Surprise, AZ 85374, USA",ROOFTOP
348,Albertsons,26,"8240 W Deer Valley Rd Peoria,",AZ,85382,(623) 572-5744,33.6832334,-112.2363526,"8240 W Deer Valley Rd, Peoria, AZ 85382, USA",ROOFTOP
349,Albertsons,27,"8950 W Bell Rd Peoria,",AZ,85382,(623) 876-8103,33.6398357,-112.2516279,"8950 W Bell Rd, Peoria, AZ 85382, USA",ROOFTOP
350,Albertsons,28,"3 Ojo Ct Rio Rico,",AZ,85648,(520) 281-1926,31.4359755,-110.9645414,"3 Ojo Ct, Rio Rico, AZ 85648, USA",ROOFTOP
351,Albertsons,29,"5085 N La Canada Dr Tucson,",AZ,85704,(520) 696-0325,32.2989117,-110.996539,"5085 N La Caada Dr, Tucson, AZ 85704, USA",ROOFTOP
352,Albertsons,30,"1350 N Silverbell Rd Tucson,",AZ,85745,(520) 623-7449,32.2387847,-111.0041263,"1350 N Silverbell Rd, Tucson, AZ 85745, USA",ROOFTOP
353,Albertsons,31,"1416 E Route 66 Flagstaff,",AZ,86001,(928) 773-7955,35.1950268,-111.6335555,"1416 E Rte 66, Flagstaff, AZ 86001, USA",ROOFTOP
354,Albertsons,32,"7450 E State Route 69 Prescott Valley,",AZ,86314,(928) 775-2244,34.5866539,-112.3349453,"7450 E State Rte 69, Prescott Valley, AZ 86314, USA",ROOFTOP
355,Albertsons,33,"3260 Stockton Hill Rd Kingman,",AZ,86409,(928) 757-9115,35.2207013,-114.0344917,"3260 Stockton Hill Rd, Kingman, AZ 86409, USA",ROOFTOP
356,Albertsons,34,"2350 S Miracle Mile Bullhead City,",AZ,86442,(928) 763-7373,35.1018243,-114.5955406,"2350 Miracle Mile, Bullhead City, AZ 86442, USA",ROOFTOP
357,Albertsons,35,"Los Angeles,",CA,90001,(888) 746-7252,33.9697897,-118.2468148,"Los Angeles, CA 90001, USA",APPROXIMATE
358,Albertsons,36,"3901 Crenshaw Blvd Los Angeles,",CA,90008,(323) 295-1919,34.0140587,-118.3357846,"3901 Crenshaw Blvd, Los Angeles, CA 90008, USA",ROOFTOP
359,Albertsons,37,"3480 S La Brea Ave Los Angeles,",CA,90016,(323) 299-2649,34.0227241,-118.3554767,"3480 South La Brea Ave, Los Angeles, CA 90016, USA",ROOFTOP
360,Albertsons,38,"8985 Venice Blvd Los Angeles,",CA,90034,(909) 889-6270,34.0271101,-118.3928048,"8985 Venice Blvd, Los Angeles, CA 90034, USA",ROOFTOP
361,Albertsons,39,"3443 S Sepulveda Blvd Los Angeles,",CA,90034,(910) 692-7029,34.0194565,-118.4231626,"3443 S Sepulveda Blvd, Los Angeles, CA 90034, USA",ROOFTOP
362,Albertsons,40,"555 W Compton Blvd Ste 102 Compton,",CA,90220,(916) 560-4000,33.8962039,-118.2335426,"555 W Compton Blvd #102, Compton, CA 90220, USA",ROOFTOP
363,Albertsons,41,"5750 Mesmer Ave Culver City,",CA,90230,(912) 261-4730,33.9841108,-118.3978713,"5750 Mesmer Ave, Culver City, CA 90230, USA",ROOFTOP
364,Albertsons,42,"8320 Firestone Blvd Downey,",CA,90241,(562) 862-7513,33.9390117,-118.1328406,"8320 Firestone Blvd, Downey, CA 90241, USA",ROOFTOP
365,Albertsons,43,"1735 W Artesia Blvd Gardena,",CA,90248,(910) 692-3048,33.8742371,-118.3080208,"1735 Artesia Blvd, Gardena, CA 90248, USA",ROOFTOP
366,Albertsons,44,"14401 Inglewood Ave Hawthorne,",CA,90250,(916) 744-1510,33.9007255,-118.3624481,"14401 S Inglewood Ave, Hawthorne, CA 90250, USA",ROOFTOP
367,Albertsons,45,"12630 Hawthorne Blvd Hawthorne,",CA,90250,(916) 781-5424,33.9177221,-118.3512407,"12630 Hawthorne Blvd, Hawthorne, CA 90250, USA",ROOFTOP
368,Albertsons,46,"615 Pacific Coast Hwy Hermosa Beach,",CA,90254,(910) 628-5803,33.8596472,-118.3917393,"615 Pacific Coast Hwy, Hermosa Beach, CA 90254, USA",RANGE_INTERPOLATED
369,Albertsons,47,"21035 Hawthorne Bl Hermosa Beach,",CA,90254,(914) 273-8267,33.8389946,-118.355292,"21035 Hawthorne Blvd, Torrance, CA 90503, USA",ROOFTOP
370,Albertsons,48,"2115 Artesia Blvd Redondo Beach,",CA,90278,(914) 376-5429,33.8732423,-118.3736259,"2115 Artesia Blvd, Redondo Beach, CA 90278, USA",ROOFTOP
371,Albertsons,49,"3105 Wilshire Blvd Santa Monica,",CA,90403,(256) 721-0739,34.040251,-118.4728012,"3105 Wilshire Blvd, Santa Monica, CA 90403, USA",ROOFTOP
372,Albertsons,50,"2627 Lincoln Blvd Santa Monica,",CA,90405,(912) 383-4377,34.0070072,-118.4746659,"2627 Lincoln Blvd, Santa Monica, CA 90405, USA",ROOFTOP
373,Albertsons,51,"21035 Hawthorne Blvd Torrance,",CA,90503,(516) 845-1044,33.8389946,-118.355292,"21035 Hawthorne Blvd, Torrance, CA 90503, USA",ROOFTOP
374,Albertsons,52,"13003 Whittier Blvd Whittier,",CA,90602,(562) 696-5025,33.9668293,-118.036683,"13003 Whittier Blvd, Whittier, CA 90602, USA",ROOFTOP
375,Albertsons,53,"8880 Valley View St Buena Park,",CA,90620,(714) 236-8200,33.8339849,-118.0273072,"8880 Valley View St, Buena Park, CA 90620, USA",ROOFTOP
376,Albertsons,54,"6931 La Palma Ave Buena Park,",CA,90620,(714) 522-1054,33.8475193,-118.0124789,"6931 La Palma Ave, Buena Park, CA 90620, USA",ROOFTOP
377,Albertsons,55,"8060 Dale St Buena Park,",CA,90620,(714) 828-5550,33.8460349,-117.9839386,"8060 Dale St, Buena Park, CA 90620, USA",ROOFTOP
378,Albertsons,56,"1800 W Whittier Blvd La Habra,",CA,90631,(562) 697-6442,33.93845750000001,-117.9664436,"1800 W Whittier Blvd, La Habra, CA 90631, USA",ROOFTOP
379,Albertsons,57,"15200 Rosecrans Ave La Mirada,",CA,90638,(714) 521-2310,33.89715,-118.0076186,"15200 Rosecrans Ave, La Mirada, CA 90638, USA",ROOFTOP
380,Albertsons,58,"316 Wilber Pl Montebello,",CA,90640,(323) 278-0128,34.0121217,-118.096631,"316 Wilber Pl, Montebello, CA 90640, USA",ROOFTOP
381,Albertsons,59,"2469 Via Campo Montebello,",CA,90640,(323) 888-2250,34.0311748,-118.1226002,"2469 Via Campo, Montebello, CA 90640, USA",ROOFTOP
382,Albertsons,60,"1636 W 25th St San Pedro,",CA,90732,(919) 489-9887,33.7240219,-118.3135922,"1636 W 25th St, San Pedro, CA 90732, USA",ROOFTOP
383,Albertsons,61,"12451 Seal Beach Blvd Seal Beach,",CA,90740,(562) 431-2113,33.781662,-118.074232,"12451 Seal Beach Blvd, Seal Beach, CA 90740, USA",ROOFTOP
384,Albertsons,62,"1222 N Avalon Blvd Wilmington,",CA,90744,(919) 676-3534,33.787434,-118.262443,"1222 N Avalon Blvd, Wilmington, CA 90744, USA",ROOFTOP
385,Albertsons,63,"200 E Sepulveda Blvd Carson,",CA,90745,(913) 384-5793,33.8065748,-118.2727322,"200 E Sepulveda Blvd, Carson, CA 90745, USA",ROOFTOP
386,Albertsons,64,"110 E Carson St Carson,",CA,90745,(919) 751-2149,33.8307939,-118.2766897,"110 E Carson St, Carson, CA 90745, USA",ROOFTOP
387,Albertsons,65,"6255 E 2nd St Long Beach,",CA,90803,(562) 430-4822,33.7586098,-118.1123364,"6255 E 2nd St, Long Beach, CA 90803, USA",ROOFTOP
388,Albertsons,66,"3400 E South St Long Beach,",CA,90805,(562) 529-6098,33.858783,-118.1519226,"3400 E South St, Lakewood, CA 90805, USA",ROOFTOP
389,Albertsons,67,"101 E Willow St Long Beach,",CA,90806,(562) 988-8785,33.8054743,-118.1921677,"101 E Willow St, Long Beach, CA 90806, USA",ROOFTOP
390,Albertsons,68,"6235 E Spring St Long Beach,",CA,90808,(562) 425-8456,33.8113746,-118.1098904,"6235 E Spring St, Long Beach, CA 90808, USA",ROOFTOP
391,Albertsons,69,"644 Redondo Ave Long Beach,",CA,90814,(562) 439-4004,33.7745771,-118.1518567,"644 Redondo Ave, Long Beach, CA 90814, USA",ROOFTOP
392,Albertsons,70,"298 E Live Oak Ave Arcadia,",CA,91006,(626) 446-1416,34.1083655,-118.0232962,"298 Live Oak Ave, Arcadia, CA 91006, USA",RANGE_INTERPOLATED
393,Albertsons,71,"250 Parkrose Ave Monrovia,",CA,91016,(626) 287-7581,34.1497366,-117.98439,"250 Park Rose Ave, Monrovia, CA 91016, USA",RANGE_INTERPOLATED
394,Albertsons,72,"725 E Huntington Dr Monrovia,",CA,91016,(626) 305-4231,34.1403669,-117.9891451,"725 E Huntington Dr, Monrovia, CA 91016, USA",ROOFTOP
395,Albertsons,73,"3841 E Sierra Madre Blvd Pasadena,",CA,91107,(626) 351-0076,34.162414,-118.0691989,"3841 E Sierra Madre Blvd, Pasadena, CA 91107, USA",ROOFTOP
396,Albertsons,74,"541 S Reino Rd Newbury Park,",CA,91320,(805) 499-7795,34.1694548,-118.9565817,"541 S Reino Rd, Thousand Oaks, CA 91320, USA",ROOFTOP
397,Albertsons,75,"18555 Devonshire St Northridge,",CA,91324,(818) 368-3694,34.2583994,-118.5378051,"18555 Devonshire St, Northridge, CA 91324, USA",ROOFTOP
398,Albertsons,76,"16201 San Fernando Mission Blvd Granada Hills,",CA,91344,(818) 366-9555,34.2730677,-118.4855751,"16201 San Fernando Mission Blvd, Granada Hills, CA 91344, USA",ROOFTOP
399,Albertsons,77,"18571 Soledad Canyon Rd Canyon Country,",CA,91351,(661) 298-0233,34.4170505,-118.4580643,"18571 Soledad Canyon Rd, Santa Clarita, CA 91351, USA",ROOFTOP
400,Albertsons,78,"5770 Lindero Canyon Rd Thousand Oaks,",CA,91362,(818) 889-9819,34.1537821,-118.7945823,"5770 Lindero Canyon Rd, Westlake Village, CA 91362, USA",ROOFTOP
401,Albertsons,79,"26850 The Old Rd Stevenson Ranch,",CA,91381,(661) 799-9473,34.4088452,-118.5795576,"26850 The Old Rd, Stevenson Ranch, CA 91381, USA",RANGE_INTERPOLATED
402,Albertsons,80,"7227 Van Nuys Blvd Van Nuys,",CA,91405,(818) 787-8035,34.2023804,-118.4504444,"7227 Van Nuys Blvd, Van Nuys, CA 91405, USA",ROOFTOP
403,Albertsons,81,"3830 W Verdugo Ave Burbank,",CA,91505,(818) 954-0817,34.159901,-118.3451904,"3830 W Verdugo Ave, Burbank, CA 91505, USA",ROOFTOP
404,Albertsons,82,"11358 Kenyon Way Rancho Cucamonga,",CA,91701,(909) 476-9874,34.1355951,-117.5571974,"11358 Kenyon Way, Rancho Cucamonga, CA 91701, USA",ROOFTOP
405,Albertsons,83,"3255 Grand Ave Chino Hills,",CA,91709,(909) 590-3660,34.0016817,-117.7342333,"3255 Grand Ave, Chino Hills, CA 91709, USA",ROOFTOP
406,Albertsons,84,"15970 Los Serranos Country Club Dr Chino Hills,",CA,91709,(909) 606-8184,33.9614046,-117.6954576,"15970 Los Serranos Country Club Dr, Chino Hills, CA 91709, USA",ROOFTOP
407,Albertsons,85,"12013 Central Ave Chino,",CA,91710,(909) 464-1594,34.03549539999999,-117.6883332,"12013 Central Ave, Chino, CA 91710, USA",ROOFTOP
408,Albertsons,86,"1000 N Azusa Ave Covina,",CA,91722,(626) 974-1763,34.0972202,-117.9060427,"1000 N Azusa Ave, Covina, CA 91722, USA",ROOFTOP
409,Albertsons,87,"8850 Foothill Blvd Rancho Cucamonga,",CA,91730,(909) 484-7237,34.1081551,-117.6120368,"8850 Foothill Blvd, Rancho Cucamonga, CA 91730, USA",ROOFTOP
410,Albertsons,88,"9775 Baseline Rd Rancho Cucamonga,",CA,91730,(909) 980-0728,34.1201199,-117.5918636,"9775 Base Line Rd, Rancho Cucamonga, CA 91730, USA",ROOFTOP
411,Albertsons,89,"133 W Route 66 Glendora,",CA,91740,(626) 963-5358,34.130068,-117.8650256,"133 W Rte 66, Glendora, CA 91740, USA",ROOFTOP
412,Albertsons,90,"19725 Colima Rd Rowland Heights,",CA,91748,(909) 869-7886,33.9876951,-117.8720761,"19725 Colima Rd, Rowland Heights, CA 91748, USA",ROOFTOP
413,Albertsons,91,"2522 S Grove Ave Ontario,",CA,91761,(909) 947-1055,34.0276995,-117.6286386,"2522 S Grove Ave, Ontario, CA 91761, USA",ROOFTOP
414,Albertsons,92,"1000 N Mountain Ave Ontario,",CA,91762,(410) 728-8626,34.0767972,-117.6685159,"1000 N Mountain Ave, Ontario, CA 91762, USA",ROOFTOP
415,Albertsons,93,"1235 S Diamond Bar Blvd Diamond Bar,",CA,91765,(909) 861-6207,34.0002527,-117.8129168,"1235 S Diamond Bar Blvd, Diamond Bar, CA 91765, USA",ROOFTOP
416,Albertsons,94,"933 E Las Tunas Dr San Gabriel,",CA,91776,(626) 287-7581,34.1044892,-118.0873031,"933 E Las Tunas Dr, San Gabriel, CA 91776, USA",ROOFTOP
417,Albertsons,95,"5595 Rosemead Blvd Temple City,",CA,91780,(626) 287-0907,34.1012777,-118.075048,"5595 Rosemead Blvd, Temple City, CA 91780, USA",ROOFTOP
418,Albertsons,96,"1028 N Mountain Ave Upland,",CA,91786,(909) 931-5752,34.1076375,-117.668327,"1028 N Mountain Ave, Upland, CA 91786, USA",ROOFTOP
419,Albertsons,97,"18730 Amar Rd Walnut,",CA,91789,(626) 965-7377,34.0265593,-117.8938305,"18730 Amar Rd, Walnut, CA 91789, USA",ROOFTOP
420,Albertsons,98,"2630 E Workman Ave West Covina,",CA,91791,(626) 331-5532,34.0747025,-117.8887235,"2630 E Workman Ave, West Covina, CA 91791, USA",ROOFTOP
421,Albertsons,99,"2400 W Commonwealth Ave Alhambra,",CA,91803,(626) 576-3900,34.0865726,-118.1498455,"2400 W Commonwealth Ave, Alhambra, CA 91803, USA",ROOFTOP
422,Albertsons,100,"2955 Alpine Bl Alpine,",CA,91901,(619) 445-0231,32.8329579,-116.7502896,"2955 Alpine Blvd, Alpine, CA 91901, USA",ROOFTOP
423,Albertsons,101,"2310 Proctor Valley Rd Chula Vista,",CA,91914,(619) 482-2930,32.6611106,-116.9687772,"2310 Proctor Valley Rd, Chula Vista, CA 91914, USA",ROOFTOP
424,Albertsons,102,"9831 Campo Rd Spring Valley,",CA,91977,(619) 462-6290,32.7469488,-116.9839681,"9831 Campo Rd, Spring Valley, CA 91977, USA",ROOFTOP
425,Albertsons,103,"7660 El Camino Real Carlsbad,",CA,92009,(760) 633-3589,33.0873436,-117.2671087,"7660 El Camino Real, Carlsbad, CA 92009, USA",ROOFTOP
426,Albertsons,104,"2899 Jamacha Rd El Cajon,",CA,92019,(619) 670-7880,32.73930720000001,-116.9374994,"2899 Jamacha Road, El Cajon, CA 92019, USA",ROOFTOP
427,Albertsons,105,"1608 Broadway El Cajon,",CA,92021,(619) 579-3463,32.8090037,-116.9202026,"1608 Broadway, El Cajon, CA 92021, USA",ROOFTOP
428,Albertsons,106,"1509 E Valley Pkwy Escondido,",CA,92027,(760) 735-5131,33.131488,-117.0595716,"1509 E Valley Pkwy, Escondido, CA 92027, USA",ROOFTOP
429,Albertsons,107,"1570 W Valley Pkwy Escondido,",CA,92029,(760) 738-1669,33.1087309,-117.1057928,"1570 W Valley Pkwy, Escondido, CA 92029, USA",ROOFTOP
430,Albertsons,108,"PO Box 20 La Jolla,",CA,92038,(775) 885-9530,32.8470163,-117.2729373,"PO Box 889, La Jolla, CA 92038, USA",GEOMETRIC_CENTER
431,Albertsons,109,"3450 Marron Rd Oceanside,",CA,92056,(760) 729-3468,33.1795935,-117.2964631,"3450 Marron Rd, Oceanside, CA 92056, USA",ROOFTOP
432,Albertsons,110,"4150 Oceanside Blvd Oceanside,",CA,92056,(760) 940-8282,33.2077157,-117.2872673,"4150 Oceanside Blvd, Oceanside, CA 92056, USA",ROOFTOP
433,Albertsons,111,"3925 Mission Ave Oceanside,",CA,92058,(760) 433-8107,33.2276023,-117.3240018,"3925 Mission Ave, Oceanside, CA 92058, USA",ROOFTOP
434,Albertsons,112,"14837 Pomerado Rd Poway,",CA,92064,(858) 748-9555,32.9812267,-117.0607111,"14837 Pomerado Rd, Poway, CA 92064, USA",ROOFTOP
435,Albertsons,113,"1459 Main St Ramona,",CA,92065,(760) 789-0023,33.0393835,-116.8772307,"1459 Main St, Ramona, CA 92065, USA",ROOFTOP
436,Albertsons,114,"151 Woodland Pkwy San Marcos,",CA,92069,(760) 736-8880,33.140048,-117.1384242,"151 Woodland Pkwy, San Marcos, CA 92069, USA",ROOFTOP
437,Albertsons,115,"571 Larchwood Dr San Marcos,",CA,92069,(760) 798-2116,33.1504277,-117.1372523,"571 Larchwood Dr, San Marcos, CA 92069, USA",ROOFTOP
438,Albertsons,116,"9870 N Magnolia Ave Santee,",CA,92071,(619) 449-4217,32.8564095,-116.9721521,"9870 N Magnolia Ave, Santee, CA 92071, USA",ROOFTOP
439,Albertsons,117,"1929 W San Marcos Blvd San Marcos,",CA,92078,(760) 598-7272,33.1318735,-117.21093,"1929 W San Marcos Blvd, San Marcos, CA 92078, USA",ROOFTOP
440,Albertsons,118,"661 S Twin Oaks Valley Rd San Marcos,",CA,92078,(760) 798-2824,33.1249184,-117.1613737,"661 S Twin Oaks Valley Rd, San Marcos, CA 92078, USA",ROOFTOP
441,Albertsons,119,"1601 S Melrose Dr Vista,",CA,92081,(760) 598-0142,33.1668298,-117.248041,"1601 S Melrose Dr, Vista, CA 92081, USA",ROOFTOP
442,Albertsons,120,"644 14th St San Diego,",CA,92101,(619) 237-1247,32.7121254,-117.1520813,"644 14th St, San Diego, CA 92101, USA",RANGE_INTERPOLATED
443,Albertsons,121,"655 14th St San Diego,",CA,92101,(619) 237-9127,32.7121466,-117.1514293,"655 14th St, San Diego, CA 92101, USA",ROOFTOP
444,Albertsons,122,"422 W Washington St San Diego,",CA,92103,(619) 291-1277,32.750502,-117.167742,"422 W Washington St, San Diego, CA 92103, USA",ROOFTOP
445,Albertsons,123,"4421 University Ave San Diego,",CA,92105,(619) 563-7575,32.7486931,-117.099174,"4421 University Ave, San Diego, CA 92105, USA",ROOFTOP
446,Albertsons,124,"730 Turquoise St San Diego,",CA,92109,(858) 488-0600,32.8087643,-117.260355,"730 Turquoise St, San Diego, CA 92109, USA",ROOFTOP
447,Albertsons,125,"7715 Balboa Ave San Diego,",CA,92111,(858) 576-2270,32.8207656,-117.1579086,"7715 Balboa Ave, San Diego, CA 92111, USA",ROOFTOP
448,Albertsons,126,"4220 Balboa Ave San Diego,",CA,92117,(858) 270-7140,32.8127773,-117.2000879,"4220 Balboa Ave, San Diego, CA 92117, USA",ROOFTOP
449,Albertsons,127,"150 B Ave Coronado,",CA,92118,(619) 234-1523,32.6972763,-117.1712342,"150 B Ave, Coronado, CA 92118, USA",ROOFTOP
450,Albertsons,128,"5185 Waring Rd San Diego,",CA,92120,(619) 582-1607,32.7916785,-117.0800518,"5185 Waring Rd, San Diego, CA 92120, USA",ROOFTOP
451,Albertsons,129,"8510 Genesee Ave San Diego,",CA,92122,(877) 932-7948,32.8675795,-117.2153401,"8510 Genesee Ave, San Diego, CA 92122, USA",ROOFTOP
452,Albertsons,130,"14340 Penasquitos Dr San Diego,",CA,92129,(858) 672-2552,32.9766226,-117.0892509,"14340 Penasquitos Dr, San Diego, CA 92129, USA",ROOFTOP
453,Albertsons,131,"7895 Highland Village Pl San Diego,",CA,92129,(858) 780-9872,32.9609224,-117.1535891,"7895 Highlands Village Pl, San Diego, CA 92129, USA",ROOFTOP
454,Albertsons,132,"47 22 Via Genoa Indio,",CA,92201,(760) 342-6890,33.7057618,-116.2170386,"Va Genoa, Indio, CA 92201, USA",GEOMETRIC_CENTER
455,Albertsons,133,"300 S Highland Springs Ave Banning,",CA,92220,(951) 769-1779,33.9238641,-116.9454427,"300 S Highland Springs Ave, Banning, CA 92220, USA",ROOFTOP
456,Albertsons,134,"840 E Hobsonway Blythe,",CA,92225,(760) 922-4099,33.6092755,-114.5871842,"840 E Hobsonway, Blythe, CA 92225, USA",ROOFTOP
457,Albertsons,135,"31655 Date Palm Dr Cathedral City,",CA,92234,(760) 202-0715,33.81853510000001,-116.4598642,"31655 Date Palm Dr, Cathedral City, CA 92234, USA",ROOFTOP
458,Albertsons,136,"35935 Date Palm Dr Cathedral City,",CA,92234,(760) 328-8046,33.7877914,-116.4594062,"35935 Date Palm Dr, Cathedral City, CA 92234, USA",ROOFTOP
459,Albertsons,137,"83053 Avenue 48 Coachella,",CA,92236,(760) 342-8057,33.6987556,-116.2151417,"83053 Ave 48, Coachella, CA 92236, USA",ROOFTOP
460,Albertsons,138,"74590 Highway 111 Palm Desert,",CA,92260,(760) 340-1201,33.7226956,-116.3638701,"74590 CA-111, Palm Desert, CA 92260, USA",ROOFTOP
461,Albertsons,139,"73 101 Country Club Dr Palm Desert,",CA,92260,(760) 346-2036,33.7571144,-116.3892859,"73101 Country Club Dr, Palm Desert, CA 92260, USA",ROOFTOP
462,Albertsons,140,"74580 Highway 111 Palm Desert,",CA,92260,(760) 346-2566,33.7218767,-116.3645771,"74580 CA-111, Palm Desert, CA 92260, USA",ROOFTOP
463,Albertsons,141,"1751 N Sunrise Way Palm Springs,",CA,92262,(760) 322-1131,33.8461196,-116.5292815,"1751 N Sunrise Way, Palm Springs, CA 92262, USA",ROOFTOP
464,Albertsons,142,"20261 Us Highway 18 Apple Valley,",CA,92307,(760) 242-3660,34.5219718,-117.2148343,"CA-18, Apple Valley, CA, USA",GEOMETRIC_CENTER
465,Albertsons,143,"9840 Sierra Ave Fontana,",CA,92335,(909) 350-0232,34.0751368,-117.43756,"9840 Sierra Ave, Fontana, CA 92335, USA",ROOFTOP
466,Albertsons,144,"16055 Foothill Blvd Fontana,",CA,92335,(909) 822-7037,34.1052444,-117.4550882,"16055 Foothill Blvd, Fontana, CA 92335, USA",ROOFTOP
467,Albertsons,145,"7201 Boulder Ave Highland,",CA,92346,(909) 425-9100,34.1239047,-117.193564,"7201 Boulder Ave, Highland, CA 92346, USA",ROOFTOP
468,Albertsons,146,"450 E Cypress Ave Redlands,",CA,92373,(909) 792-1114,34.0486276,-117.1715099,"450 E Cypress Ave, Redlands, CA 92373, USA",ROOFTOP
469,Albertsons,147,"151 W Base Line Rd Rialto,",CA,92376,(909) 873-4100,34.1199357,-117.3713792,"151 W Baseline Rd, Rialto, CA 92376, USA",ROOFTOP
470,Albertsons,148,"13650 Bear Valley Rd Victorville,",CA,92392,(760) 243-6862,34.4718919,-117.3659067,"13650 Bear Valley Rd, Victorville, CA 92392, USA",ROOFTOP
471,Albertsons,149,"140 W 40th St San Bernardino,",CA,92407,(909) 883-5666,34.165651,-117.2864615,"140 W 40th St, San Bernardino, CA 92407, USA",ROOFTOP
472,Albertsons,150,"3451 Dixie Ln Riverside,",CA,92503,(951) 279-8698,33.8823419,-117.5007137,"3451 Dixie Ln, Riverside, CA 92503, USA",ROOFTOP
473,Albertsons,151,"2975 Van Buren Blvd Riverside,",CA,92503,(951) 689-2252,33.9092563,-117.4352303,"2975 Van Buren Boulevard, Riverside, CA 92503, USA",ROOFTOP
474,Albertsons,152,"5202 Arlington Ave Riverside,",CA,92504,(951) 359-8045,33.9444932,-117.4159,"5202 Arlington Ave, Riverside, CA 92504, USA",ROOFTOP
475,Albertsons,153,"30901 Riverside Dr Lake Elsinore,",CA,92530,(951) 245-4461,33.6860921,-117.3669546,"30901 Riverside Dr, Lake Elsinore, CA 92530, USA",ROOFTOP
476,Albertsons,154,"32281 Mission Trl Lake Elsinore,",CA,92530,(951) 674-0771,33.6531034,-117.2981965,"32281 Mission Trail, Lake Elsinore, CA 92530, USA",ROOFTOP
477,Albertsons,155,"41000 California Oaks Rd Murrieta,",CA,92562,(951) 600-1127,33.5675603,-117.2036893,"41000 California Oaks Rd, Murrieta, CA 92562, USA",ROOFTOP
478,Albertsons,156,"39140 Winchester Rd Murrieta,",CA,92563,(951) 600-4461,33.5507785,-117.1389757,"39140 Winchester Rd, Murrieta, CA 92563, USA",GEOMETRIC_CENTER
479,Albertsons,157,"2560 N Perris Blvd Perris,",CA,92571,(951) 943-4611,33.8176666,-117.228125,"2560 N Perris Blvd, Perris, CA 92571, USA",ROOFTOP
480,Albertsons,158,"26100 Newport Rd Menifee,",CA,92584,(951) 301-3852,33.6858596,-117.2048343,"26100 Newport Rd, Menifee, CA 92584, USA",ROOFTOP
481,Albertsons,159,"26100 Newport Rd Ste B Menifee,",CA,92584,(951) 301-3852,33.6858596,-117.2048343,"26100 Newport Rd Ste B, Menifee, CA 92584, USA",ROOFTOP
482,Albertsons,160,"23893 Clinton Keith Rd Wildomar,",CA,92595,(951) 600-4607,33.5957464,-117.2414316,"23893 Clinton Keith Rd, Wildomar, CA 92595, USA",ROOFTOP
483,Albertsons,161,"23805 Clinton Keith Rd Wildomar,",CA,92595,(951) 600-4607,33.596363,-117.2435216,"23805 Clinton Keith Rd, Wildomar, CA 92595, USA",ROOFTOP
484,Albertsons,162,"3931 Irvine Blvd Irvine,",CA,92602,(714) 734-5655,33.7242,-117.7723186,"3931 Irvine Blvd, Irvine, CA 92602, USA",ROOFTOP
485,Albertsons,163,"Huntington Beach,",CA,92605,(714) 846-1381,33.7337599,-117.99995,"HUNTINGTN BCH, CA 92605, USA",APPROXIMATE
486,Albertsons,164,"14201 Jeffrey Rd Irvine,",CA,92620,(949) 733-0945,33.6952337,-117.7655032,"14201 Jeffrey Rd, Irvine, CA 92620, USA",ROOFTOP
487,Albertsons,165,"3049 E Coast Hwy Corona Del Mar,",CA,92625,(949) 675-8901,33.5979972,-117.8720761,"3049 East Coast Hwy, Corona Del Mar, CA 92625, USA",ROOFTOP
488,Albertsons,166,"1175 Baker St Ste B Costa Mesa,",CA,92626,(714) 437-0754,33.6790264,-117.9068887,"1175 Baker St Ste B, Costa Mesa, CA 92626, USA",ROOFTOP
489,Albertsons,167,"2300 Harbor Blvd Ste C Costa Mesa,",CA,92626,(949) 515-7227,33.6580273,-117.9175741,"2300 Harbor Blvd Ste C, Costa Mesa, CA 92626, USA",ROOFTOP
490,Albertsons,168,"33601 Del Obispo St Dana Point,",CA,92629,(949) 496-9490,33.47506070000001,-117.686245,"33601 Del Obispo St, Dana Point, CA 92629, USA",ROOFTOP
491,Albertsons,169,"9051 Atlanta Ave Huntington Beach,",CA,92646,(714) 962-3338,33.6587507,-117.9699079,"9051 Atlanta Ave, Huntington Beach, CA 92646, USA",ROOFTOP
492,Albertsons,170,"7201 Yorktown Ave Huntington Beach,",CA,92648,(714) 536-3679,33.6808855,-118.0027806,"7201 Yorktown Ave, Huntington Beach, CA 92648, USA",ROOFTOP
493,Albertsons,171,"30922 Coast Hwy Laguna Beach,",CA,92651,(949) 499-1733,33.5146607,-117.7550279,"30922 Coast Hwy, Laguna Beach, CA 92677, USA",ROOFTOP
494,Albertsons,172,"310 W Balboa Blvd Newport Coast,",CA,92657,(949) 675-1040,33.6041738,-117.9065236,"310 W Balboa Blvd, Newport Beach, CA 92661, USA",RANGE_INTERPOLATED
495,Albertsons,173,"804 Avenida Pico San Clemente,",CA,92673,(949) 492-1755,33.4427065,-117.6140429,"804 Avenida Pico, San Clemente, CA 92673, USA",ROOFTOP
496,Albertsons,174,"30241 Golden Lantern Laguna Niguel,",CA,92677,(949) 363-0456,33.523915,-117.6879421,"30241 Golden Lantern, Laguna Niguel, CA 92677, USA",ROOFTOP
497,Albertsons,175,"29941 Alicia Pkwy Laguna Niguel,",CA,92677,(949) 495-1891,33.528092,-117.7175764,"29941 Alicia Pkwy, Laguna Niguel, CA 92677, USA",ROOFTOP
498,Albertsons,176,"6755 Westminster Blvd Westminster,",CA,92683,(714) 898-3668,33.7607748,-118.009151,"6755 Westminster Blvd, Westminster, CA 92683, USA",ROOFTOP
499,Albertsons,177,"25872 Muirlands Blvd Mission Viejo,",CA,92691,(949) 461-0099,33.600315,-117.6781348,"25872 Muirlands Blvd, Mission Viejo, CA 92691, USA",ROOFTOP
500,Albertsons,178,"23072 Alicia Pkwy Mission Viejo,",CA,92692,(949) 583-9779,33.6274397,-117.636172,"23072 Alicia Pkwy, Mission Viejo, CA 92692, USA",ROOFTOP
501,Albertsons,179,"27702 Crown Valley Pkwy Ste B Ladera Ranch,",CA,92694,(949) 364-2098,33.5632981,-117.6469909,"27702 Crown Valley Pkwy Ste B, Ladera Ranch, CA 92694, USA",ROOFTOP
502,Albertsons,180,"3329 S Bristol St Santa Ana,",CA,92704,(714) 557-9015,33.7011809,-117.8842077,"3329 S Bristol St, Santa Ana, CA 92704, USA",ROOFTOP
503,Albertsons,181,"770 S Harbor Blvd Santa Ana,",CA,92704,(714) 839-5371,33.7370994,-117.92166,"770 S Harbor Blvd, Santa Ana, CA 92704, USA",ROOFTOP
504,Albertsons,182,"2000 E 17th St Santa Ana,",CA,92705,(714) 541-9100,33.7587228,-117.8382862,"2000 17th St, Santa Ana, CA 92705, USA",ROOFTOP
505,Albertsons,183,"18579 Brookhurst St Fountain Valley,",CA,92708,(714) 378-0196,33.6929718,-117.9561113,"18579 Brookhurst St, Fountain Valley, CA 92708, USA",ROOFTOP
506,Albertsons,184,"25050 Allesandro Bl Santa Ana,",CA,92711,(877) 932-7948,33.918785,-117.2252423,"25050 Alessandro Blvd, Moreno Valley, CA 92553, USA",ROOFTOP
507,Albertsons,185,"13270 Newport Ave Tustin,",CA,92780,(714) 544-8525,33.7452291,-117.8127336,"13270 Newport Ave, Tustin, CA 92780, USA",ROOFTOP
508,Albertsons,186,"9822 Katella Ave Anaheim,",CA,92804,(714) 636-1872,33.8023075,-117.9618241,"9822 Katella Ave, Anaheim, CA 92804, USA",ROOFTOP
509,Albertsons,187,"810 S State College Blvd Anaheim,",CA,92806,(714) 533-4790,33.83131590000001,-117.8885566,"810 S State College Blvd, Anaheim, CA 92806, USA",ROOFTOP
510,Albertsons,188,"200 N Puente St Brea,",CA,92821,(714) 990-8200,33.9229683,-117.9151289,"200 N Puente St, Brea, CA 92821, USA",ROOFTOP
511,Albertsons,189,"120 N Raymond Ave Fullerton,",CA,92831,(714) 870-7713,33.871077,-117.9061783,"120 N Raymond Ave, Fullerton, CA 92831, USA",ROOFTOP
512,Albertsons,190,"223 Imperial Hwy Fullerton,",CA,92835,(562) 697-1786,33.9188404,-117.9301525,"223 Imperial Hwy, Fullerton, CA 92835, USA",ROOFTOP
513,Albertsons,191,"341 Imperial Hwy Fullerton,",CA,92835,(562) 697-1786,33.9177162,-117.9270513,"341 Imperial Hwy, Fullerton, CA 92835, USA",ROOFTOP
514,Albertsons,192,"13220 Harbor Blvd Garden Grove,",CA,92843,(714) 539-1351,33.7715394,-117.9188587,"13220 Harbor Blvd, Garden Grove, CA 92843, USA",ROOFTOP
515,Albertsons,193,"1100 Hamner Ave Norco,",CA,92860,(951) 738-8880,33.8994159,-117.5650391,"1100 Hamner Ave, Norco, CA 92860, USA",ROOFTOP
516,Albertsons,194,"8440 E Chapman Ave Orange,",CA,92869,(714) 771-7933,33.7918045,-117.7636333,"8440 E Chapman Ave, Orange, CA 92869, USA",ROOFTOP
517,Albertsons,195,"2471 Kennedy Dr Corona,",CA,92879,(951) 279-2482,33.8939046,-117.5164015,"2471 Kennedy Dr, Corona, CA 92879, USA",ROOFTOP
518,Albertsons,196,"1410 E 6th St Trlr 16 Corona,",CA,92879,(951) 279-9908,33.8736414,-117.5391634,"1410 E 6th St, Corona, CA 92879, USA",ROOFTOP
519,Albertsons,197,"7070 Archibald St Corona,",CA,92880,(951) 279-0333,33.9597787,-117.5917274,"7070 Archibald Ave, Corona, CA 92880, USA",ROOFTOP
520,Albertsons,198,"1260 E Ontario Ave Corona,",CA,92881,(951) 734-8451,33.84687,-117.5423385,"1260 E Ontario Ave, Corona, CA 92881, USA",ROOFTOP
521,Albertsons,199,"950 W Olive St Corona,",CA,92882,(951) 279-0721,33.8691275,-117.5808362,"950 W Olive St, Corona, CA 92882, USA",ROOFTOP
522,Albertsons,200,"1066 W 7th St Corona,",CA,92882,(951) 279-2693,33.8758806,-117.5829181,"1066 W 7th St, Corona, CA 92882, USA",ROOFTOP
523,Albertsons,201,"986 Avenida Del Vis Corona,",CA,92882,(951) 279-8809,33.8726972,-117.6006209,"986 Avenida Del Vista, Corona, CA 92882, USA",ROOFTOP
524,Albertsons,202,"21500 Yorba Linda Blvd Yorba Linda,",CA,92887,(714) 693-7488,33.8774241,-117.7525941,"21500 Yorba Linda Blvd, Yorba Linda, CA 92887, USA",ROOFTOP
525,Albertsons,203,"7800 Telegraph Rd Ventura,",CA,93004,(805) 647-0023,34.2798738,-119.191124,"7800 Telegraph Rd, Ventura, CA 93004, USA",ROOFTOP
526,Albertsons,204,"2400 Las Posas Rd Camarillo,",CA,93010,(805) 987-1943,34.235181,-119.0374298,"2400 Las Posas Rd, Camarillo, CA 93010, USA",ROOFTOP
527,Albertsons,205,"1018 Casitas Pass Rd Carpinteria,",CA,93013,(805) 684-4815,34.3948084,-119.5119491,"1018 Casitas Pass Rd, Carpinteria, CA 93013, USA",ROOFTOP
528,Albertsons,206,"475 W Los Angeles Ave Moorpark,",CA,93021,(805) 523-9595,34.2860007,-118.8120822,"475 W Los Angeles Ave, Simi Valley, CA 93065, USA",RANGE_INTERPOLATED
529,Albertsons,207,"930 N Ventura Rd Oxnard,",CA,93030,(805) 981-8954,34.2110144,-119.1945774,"930 N Ventura Rd, Oxnard, CA 93030, USA",RANGE_INTERPOLATED
530,Albertsons,208,"920 N Ventura Rd Oxnard,",CA,93030,(805) 983-0238,34.2102333,-119.1932891,"920 N Ventura Rd, Oxnard, CA 93030, USA",ROOFTOP
531,Albertsons,209,"2401 Saviers Rd Oxnard,",CA,93033,(805) 385-2928,34.1766683,-119.1791814,"2401 Saviers Rd, Oxnard, CA 93033, USA",ROOFTOP
532,Albertsons,210,"5135 E Los Angeles Ave Simi Valley,",CA,93063,(805) 520-9298,34.272758,-118.692668,"5135 E Los Angeles Ave, Simi Valley, CA 93063, USA",ROOFTOP
533,Albertsons,211,"1268 Madera Rd Simi Valley,",CA,93065,(805) 520-9306,34.2616858,-118.7946734,"1268 Madera Rd, Simi Valley, CA 93065, USA",ROOFTOP
534,Albertsons,212,"2800 Cochran St Simi Valley,",CA,93065,(805) 522-9000,34.2780482,-118.741847,"2800 Cochran St, Simi Valley, CA 93065, USA",ROOFTOP
535,Albertsons,213,"3943 State St Santa Barbara,",CA,93105,(805) 683-0970,34.4395323,-119.7515165,"3943 State St, Santa Barbara, CA 93105, USA",ROOFTOP
536,Albertsons,214,"7127 Hollister Ave Goleta,",CA,93117,(805) 968-3558,34.4287963,-119.8769101,"7127 Hollister Ave, Goleta, CA 93199, USA",ROOFTOP
537,Albertsons,215,"1044 Kern St Taft,",CA,93268,(661) 763-4298,35.1464344,-119.4663536,"1044 Kern St, Taft, CA 93268, USA",ROOFTOP
538,Albertsons,216,"1520 Brundage Ln Bakersfield,",CA,93304,(661) 328-0835,35.3553818,-119.0196122,"1520 Brundage Ln, Bakersfield, CA 93304, USA",ROOFTOP
539,Albertsons,217,"1132 W Branch St Arroyo Grande,",CA,93420,(805) 474-4909,35.128889,-120.595647,"1132 W Branch St, Arroyo Grande, CA 93420, USA",ROOFTOP
540,Albertsons,218,"8200 El Camino Real Atascadero,",CA,93422,(805) 462-0379,35.4754391,-120.6568387,"8200 El Camino Real, Atascadero, CA 93422, USA",ROOFTOP
541,Albertsons,219,"8300 El Camino Real Atascadero,",CA,93422,(877) 932-7948,35.4751687,-120.655311,"8300 El Camino Real, Atascadero, CA 93422, USA",ROOFTOP
542,Albertsons,220,"222 E Highway 246 Buellton,",CA,93427,(805) 693-1069,34.6095008,-120.1884256,"222 E Hwy 246, Buellton, CA 93427, USA",ROOFTOP
543,Albertsons,221,"1500 N H St Lompoc,",CA,93436,(805) 736-3850,34.6622932,-120.4558358,"1500 N H St, Lompoc, CA 93436, USA",ROOFTOP
544,Albertsons,222,"730 Quintana Rd Morro Bay,",CA,93442,(805) 772-0670,35.3675051,-120.8443314,"730 Quintana Rd, Morro Bay, CA 93442, USA",ROOFTOP
545,Albertsons,223,"189 Niblick Rd Paso Robles,",CA,93446,(805) 237-1626,35.616654,-120.6810095,"189 Niblick Rd, Paso Robles, CA 93446, USA",ROOFTOP
546,Albertsons,224,"1830 N Broadway Santa Maria,",CA,93454,(805) 348-3552,34.9732039,-120.4338727,"1830 N Broadway, Santa Maria, CA 93454, USA",ROOFTOP
547,Albertsons,225,"1120 E Clark Ave Santa Maria,",CA,93455,(805) 934-3243,34.8636835,-120.4172178,"1120 E Clark Ave, Orcutt, CA 93455, USA",ROOFTOP
548,Albertsons,226,"1010 E Avenue J Lancaster,",CA,93535,(661) 948-9620,34.6880577,-118.1116278,"1010 E Ave. J, Lancaster, CA 93535, USA",ROOFTOP
549,Albertsons,227,"38727 Tierra Subida Ave Palmdale,",CA,93551,(661) 274-9557,34.586126,-118.1490227,"38727 Tierra Subida Ave, Palmdale, CA 93551, USA",ROOFTOP
550,Albertsons,228,"5038 W Avenue N Palmdale,",CA,93551,(661) 718-3791,34.6294473,-118.2203902,"5038 W Ave N, Palmdale, CA 93551, USA",ROOFTOP
551,Albertsons,229,"927 S China Lake Blvd Ridgecrest,",CA,93555,(760) 384-4015,35.6056822,-117.6747433,"927 S China Lake Blvd, Ridgecrest, CA 93555, USA",ROOFTOP
552,Albertsons,230,"1301 N Norma St Ridgecrest,",CA,93555,(760) 446-1506,35.6455409,-117.6810661,"1301 N Norma St, Ridgecrest, CA 93555, USA",ROOFTOP
553,Albertsons,231,"2425 N Blackstone Ave Fresno,",CA,93703,(559) 229-3119,36.7727531,-119.7922717,"2425 N Blackstone Ave, Fresno, CA 93703, USA",ROOFTOP
554,Albertsons,232,"1223 N Davis Rd Salinas,",CA,93907,(831) 753-7400,36.7005954,-121.6687644,"1223 N Davis Rd, Salinas, CA 93907, USA",ROOFTOP
555,Albertsons,233,"200 Country Club Gate Ctr Pacific Grove,",CA,93950,(831) 373-7381,36.6091966,-121.9225983,"200 Country Club Gate, Pacific Grove, CA 93950, USA",RANGE_INTERPOLATED
556,Albertsons,234,"6843 Mission St Daly City,",CA,94014,(650) 992-9490,37.6976342,-122.4626699,"6843 Mission St, Daly City, CA 94014, USA",ROOFTOP
557,Albertsons,235,"250 Fairmont Shopping Ctr Pacifica,",CA,94044,(650) 359-7655,37.6609794,-122.4777822,"250 Fairmont Shopping Center, Pacifica, CA 94044, USA",ROOFTOP
558,Albertsons,236,"1322 El Camino Real San Bruno,",CA,94066,(650) 742-9737,37.6402149,-122.421842,"1322 El Camino Real, San Bruno, CA 94066, USA",ROOFTOP
559,Albertsons,237,"1133 Old County Rd San Carlos,",CA,94070,(650) 637-1780,37.5003323,-122.2488158,"1133 Old County Rd, San Carlos, CA 94070, USA",ROOFTOP
560,Albertsons,238,"484 N Mathilda Ave Sunnyvale,",CA,94085,(408) 749-8200,37.3885039,-122.0295182,"484 N Mathilda Ave, Sunnyvale, CA 94085, USA",ROOFTOP
561,Albertsons,239,"1515 Sloat Blvd San Francisco,",CA,94132,(415) 681-4136,37.7332613,-122.489453,"1515 Sloat Blvd, San Francisco, CA 94132, USA",ROOFTOP
562,Albertsons,240,"5000 Mowry Ave Fremont,",CA,94538,(510) 744-1660,37.5351199,-121.9976052,"5000 Mowry Ave, Fremont, CA 94538, USA",ROOFTOP
563,Albertsons,241,"22555 Mission Blvd Hayward,",CA,94541,(510) 538-7819,37.6718963,-122.0859835,"22555 Mission Blvd, Hayward, CA 94541, USA",ROOFTOP
564,Albertsons,242,"25151 Santa Clara St Hayward,",CA,94544,(510) 670-0821,37.6478804,-122.0899597,"25151 Santa Clara St, Hayward, CA 94544, USA",ROOFTOP
565,Albertsons,243,"1701 Marina Blvd San Leandro,",CA,94577,(877) 932-7948,37.70806049999999,-122.1670308,"1701 Marina Blvd, San Leandro, CA 94577, USA",ROOFTOP
566,Albertsons,244,"1300 Fairmont Dr San Leandro,",CA,94578,(510) 276-8106,37.7037944,-122.1287079,"1300 Fairmont Dr, San Leandro, CA 94578, USA",ROOFTOP
567,Albertsons,245,"15840 Hesperian Blvd San Lorenzo,",CA,94580,(510) 276-9395,37.6823526,-122.1268571,"15840 Hesperian Blvd, San Lorenzo, CA 94580, USA",ROOFTOP
568,Albertsons,246,"21001 San Ramon Valley Blvd San Ramon,",CA,94583,(925) 828-1200,37.7239454,-121.9438308,"21001 San Ramon Valley Blvd, San Ramon, CA 94583, USA",ROOFTOP
569,Albertsons,247,"125 Sunset Ave Suisun City,",CA,94585,(877) 932-7948,38.2448506,-122.0189243,"125 Sunset Ave, Suisun City, CA 94585, USA",ROOFTOP
570,Albertsons,248,"32300 Dyer St Union City,",CA,94587,(510) 441-9393,37.5982866,-122.0692491,"32300 Dyer St, Union City, CA 94587, USA",ROOFTOP
571,Albertsons,249,"1740 Tuolumne St Vallejo,",CA,94589,(707) 645-7329,38.1235253,-122.2362104,"1740 Tuolumne St, Vallejo, CA 94589, USA",ROOFTOP
572,Albertsons,250,"247 E 18th St Oakland,",CA,94606,(510) 272-9042,37.79943,-122.2532473,"247 E 18th St, Oakland, CA 94606, USA",ROOFTOP
573,Albertsons,251,"1963 Mountain Blvd Oakland,",CA,94611,(510) 339-4291,37.8276103,-122.2112292,"1963 Mountain Blvd, Oakland, CA 94611, USA",ROOFTOP
574,Albertsons,252,"2415 San Pablo Dam Rd Ste 300 San Pablo,",CA,94806,(510) 232-0203,37.9560265,-122.3325821,"2415 San Pablo Dam Rd #300, San Pablo, CA 94806, USA",ROOFTOP
575,Albertsons,253,"570 Magnolia Ave Larkspur,",CA,94939,(415) 924-6738,37.9371605,-122.5335654,"570 Magnolia Ave, Larkspur, CA 94939, USA",ROOFTOP
576,Albertsons,254,"3705 El Camino Real Santa Clara,",CA,95051,(408) 249-6700,37.3539971,-121.9980494,"3705 El Camino Real, Santa Clara, CA 95051, USA",ROOFTOP
577,Albertsons,255,"200 El Paseo De Saratoga,",CA,95070,(408) 370-1205,37.2885801,-121.9929855,"200 El Paseo de Saratoga, San Jose, CA 95130, USA",ROOFTOP
578,Albertsons,256,"200 El Paseso De Saratoga,",CA,95070,(408) 370-1205,37.2885801,-121.9929855,"200 El Paseo de Saratoga, San Jose, CA 95130, USA",ROOFTOP
579,Albertsons,257,"844 Blossom Hill Rd San Jose,",CA,95123,(408) 578-8484,37.2492674,-121.8574159,"844 Blossom Hill Rd, San Jose, CA 95123, USA",ROOFTOP
580,Albertsons,258,"1792 Southwest Expy San Jose,",CA,95126,(408) 947-0970,37.3049493,-121.9231777,"1792 Southwest Expy, San Jose, CA 95126, USA",ROOFTOP
581,Albertsons,259,"3094 G St Merced,",CA,95340,(877) 932-7948,37.3182684,-120.4692182,"3094 G St, Merced, CA 95340, USA",ROOFTOP
582,Albertsons,260,"701 N Golden State Blvd Turlock,",CA,95380,(209) 634-2953,37.4992757,-120.8515991,"701 N Golden State Blvd, Turlock, CA 95380, USA",ROOFTOP
583,Albertsons,261,"PO Box 20 Sebastopol,",CA,95473,(775) 885-9530,38.4,-122.82,"Sebastopol, CA 95473, USA",APPROXIMATE
584,Albertsons,262,"19181 Sonoma Hwy Sonoma,",CA,95476,(707) 996-1271,38.2997261,-122.4758324,"19181 Sonoma Hwy, Sonoma, CA 95476, USA",RANGE_INTERPOLATED
585,Albertsons,263,"386 Elm Ave Auburn,",CA,95603,(530) 823-6054,38.9053164,-121.0740547,"386 Elm Ave, Auburn, CA 95603, USA",ROOFTOP
586,Albertsons,264,"6184 Sunrise Mall Citrus Heights,",CA,95610,(916) 726-1813,38.6753268,-121.269585,"6041 Sunrise Blvd, Citrus Heights, CA 95610, USA",ROOFTOP
587,Albertsons,265,"9160 Elk Grove Blvd Elk Grove,",CA,95624,(916) 685-5299,38.4090198,-121.3594341,"9160 Elk Grove Blvd, Elk Grove, CA 95624, USA",ROOFTOP
588,Albertsons,266,"1003 E Bidwell St Folsom,",CA,95630,(916) 983-0186,38.6691801,-121.1559402,"1003 E Bidwell St, Folsom, CA 95630, USA",ROOFTOP
589,Albertsons,267,"1003 Bidwell St Folsom,",CA,95630,(916) 983-4084,38.6713147,-121.1767656,"1003 Bidwell St, Folsom, CA 95630, USA",RANGE_INTERPOLATED
590,Albertsons,268,"11980 State Highway 88 Jackson,",CA,95642,(209) 223-5945,38.3623862,-120.8013445,"11980 CA-88, Jackson, CA 95642, USA",ROOFTOP
591,Albertsons,269,"8839 Greenback Ln Orangevale,",CA,95662,(916) 989-3915,38.6788586,-121.228527,"8839 Greenback Ln, Orangevale, CA 95662, USA",RANGE_INTERPOLATED
592,Albertsons,270,"1270 Broadway Placerville,",CA,95667,(530) 622-1291,38.7307684,-120.7844687,"1270 Broadway, Placerville, CA 95667, USA",ROOFTOP
593,Albertsons,271,"1979 Peabody Rd Vacaville,",CA,95687,(707) 452-0145,38.3363801,-121.9687289,"1979 Peabody Rd, Vacaville, CA 95687, USA",ROOFTOP
594,Albertsons,272,"777 E Monte Vista Ave Vacaville,",CA,95688,(707) 448-5723,38.3601295,-121.9827834,"777 E Monte Vista Ave, Vacaville, CA 95688, USA",ROOFTOP
595,Albertsons,273,"5060 Foothills Blvd Roseville,",CA,95747,(916) 782-2720,38.7602009,-121.3125203,"5060 Foothills Blvd, Roseville, CA 95747, USA",ROOFTOP
596,Albertsons,274,"3021 Stanford Ranch Rd Rocklin,",CA,95765,(916) 435-2828,38.8161666,-121.2592888,"3021 Stanford Ranch Rd, Rocklin, CA 95765, USA",ROOFTOP
597,Albertsons,275,"1550 Arcade Blvd Sacramento,",CA,95815,(916) 923-2093,38.625393,-121.431335,"1550 Arcade Blvd, Sacramento, CA 95815, USA",ROOFTOP
598,Albertsons,276,"9137 Kiefer Blvd Sacramento,",CA,95826,(916) 366-3555,38.5484585,-121.3602444,"9137 Kiefer Blvd, Sacramento, CA 95826, USA",ROOFTOP
599,Albertsons,277,"3291 Truxel Rd Sacramento,",CA,95833,(916) 646-2023,38.6254484,-121.4991545,"3291 Truxel Rd, Sacramento, CA 95833, USA",ROOFTOP
600,Albertsons,278,"2054 Nevada City Hwy Grass Valley,",CA,95945,(530) 477-9511,39.2392895,-121.037631,"2054 Nevada City Hwy, Grass Valley, CA 95945, USA",ROOFTOP
601,Albertsons,279,"12054 Nevada City Hwy Grass Valley,",CA,95945,(530) 477-9511,39.2390844,-121.0377519,"12054 Nevada City Hwy, Grass Valley, CA 95945, USA",ROOFTOP
602,Albertsons,280,"6636 Clark Rd Paradise,",CA,95969,(530) 877-0522,39.7765774,-121.5895301,"6636 Clark Rd, Paradise, CA 95969, USA",ROOFTOP
603,Albertsons,281,"100 River Rd Tahoe City,",CA,96145,(530) 583-5231,39.16802089999999,-120.1460297,"100 W River Rd, Tahoe City, CA 96145, USA",ROOFTOP
604,Albertsons,282,"PO Box 20 Truckee,",CA,96160,(775) 885-9530,39.33,-120.18,"Truckee, CA 96160, USA",APPROXIMATE
605,Albertsons,283,"15220 E 6th Ave Aurora,",CO,80011,(800) 925-6278,39.7244333,-104.8121749,"15220 E 6th Ave, Aurora, CO 80011, USA",ROOFTOP
606,Albertsons,284,"16746 E Smoky Hill Rd Aurora,",CO,80015,(808) 484-0052,39.6251984,-104.7939385,"16746 E Smoky Hill Rd, Centennial, CO 80015, USA",ROOFTOP
607,Albertsons,285,"6100 S Gun Club Rd Aurora,",CO,80016,(800) 925-6278,39.6047252,-104.714726,"6100 S Gun Club Rd, Aurora, CO 80016, USA",ROOFTOP
608,Albertsons,286,"1200 S Buckley Rd Aurora,",CO,80017,(502) 420-0173,39.6949153,-104.7887415,"1200 S Buckley Rd, Aurora, CO 80017, USA",ROOFTOP
609,Albertsons,287,"555 W South Boulder Rd Lafayette,",CO,80026,(805) 278-2141,39.9888819,-105.0964783,"555 W South Boulder Rd, Lafayette, CO 80026, USA",ROOFTOP
610,Albertsons,288,"910 W Cherry St Louisville,",CO,80027,(805) 543-5340,39.9637924,-105.16007,"910 W Cherry St, Louisville, CO 80027, USA",ROOFTOP
611,Albertsons,289,"4262 Wadsworth Blvd Wheat Ridge,",CO,80033,(877) 932-7948,39.7743511,-105.0797819,"4262 Wadsworth Blvd, Wheat Ridge, CO 80033, USA",ROOFTOP
612,Albertsons,290,"7450 S University Blvd Littleton,",CO,80122,(812) 794-3469,39.5813363,-104.9599014,"7450 S University Blvd, Littleton, CO 80122, USA",ROOFTOP
613,Albertsons,291,"3615 W Bowles Ave Littleton,",CO,80123,(813) 952-0103,39.6106164,-105.0351029,"3615 W Bowles Ave, Littleton, CO 80123, USA",ROOFTOP
614,Albertsons,292,"9449 S University Blvd Littleton,",CO,80126,(877) 932-7948,39.54468079999999,-104.9471952,"9449 S University Blvd, Littleton, CO 80126, USA",ROOFTOP
615,Albertsons,293,"323 S Broadway Denver,",CO,80209,(812) 349-1390,39.7106302,-104.9888127,"323 S Broadway, Denver, CO 80209, USA",ROOFTOP
616,Albertsons,294,"3909 E Evans Ave Denver,",CO,80210,(812) 479-0993,39.6785849,-104.9418236,"3909 E Evans Ave, Denver, CO 80210, USA",ROOFTOP
617,Albertsons,295,"3125 S Sheridan Blvd Denver,",CO,80227,(877) 932-7948,39.6550305,-105.0541889,"3125 S Sheridan Blvd, Denver, CO 80227, USA",ROOFTOP
618,Albertsons,296,"8978 Washington St Denver,",CO,80229,(877) 932-7948,39.85874039999999,-104.9763066,"8978 Washington St, Thornton, CO 80229, USA",ROOFTOP
619,Albertsons,297,"200 Quebec St Bldg 400 Denver,",CO,80230,(800) 925-6278,39.7200488,-104.9017068,"200 Quebec St Bldg 400, Denver, CO 80230, USA",ROOFTOP
620,Albertsons,298,"3840 E 104th Ave Denver,",CO,80233,(800) 925-6278,39.8832921,-104.9425807,"3840 E 104th Ave, Thornton, CO 80233, USA",ROOFTOP
621,Albertsons,299,"500 E 120th Ave Denver,",CO,80233,(801) 972-4945,39.9122222,-104.9806882,"500 E 120th Ave, Northglenn, CO 80233, USA",ROOFTOP
622,Albertsons,300,"1750 Main St Longmont,",CO,80501,(813) 254-5995,40.1909584,-105.1008524,"1750 Main St, Longmont, CO 80501, USA",ROOFTOP
623,Albertsons,301,"731 S Lemay Ave Fort Collins,",CO,80524,(970) 490-1128,40.5771617,-105.0595772,"731 S Lemay Ave, Fort Collins, CO 80524, USA",ROOFTOP
624,Albertsons,302,"3660 S Mason St Fort Collins,",CO,80525,(970) 223-3221,40.536743,-105.0784527,"3660 S Mason St, Fort Collins, CO 80525, USA",ROOFTOP
625,Albertsons,303,"1325 E Eisenhower Blvd Loveland,",CO,80537,(970) 663-6365,40.40829900000001,-105.057202,"1325 E Eisenhower Blvd, Loveland, CO 80537, USA",ROOFTOP
626,Albertsons,304,"1451 W Eisenhower Blvd Loveland,",CO,80537,(970) 667-5642,40.4085012,-105.0980498,"1451 W Eisenhower Blvd, Loveland, CO 80538, USA",ROOFTOP
627,Albertsons,305,"2325 23rd Ave Greeley,",CO,80634,(970) 330-5737,40.39961170000001,-104.717551,"2325 23rd Ave, Greeley, CO 80634, USA",ROOFTOP
628,Albertsons,306,"455 E Cheyenne Mountain Blvd Colorado Springs,",CO,80906,(719) 576-4077,38.7883612,-104.820807,"455 E Cheyenne Mountain Blvd, Colorado Springs, CO 80906, USA",ROOFTOP
629,Albertsons,307,"4405 Centennial Blvd Colorado Springs,",CO,80907,(719) 593-8805,38.8949061,-104.8499311,"4405 Centennial Blvd, Colorado Springs, CO 80907, USA",ROOFTOP
630,Albertsons,308,"8750 N Union Blvd Colorado Springs,",CO,80920,(719) 282-9066,38.9587216,-104.7668613,"8750 N Union Blvd, Colorado Springs, CO 80920, USA",ROOFTOP
631,Albertsons,309,"7055 Austin Bluffs Pkwy Colorado Springs,",CO,80923,(719) 264-6925,38.9326067,-104.7387881,"7055 Austin Bluffs Pkwy, Colorado Springs, CO 80923, USA",ROOFTOP
632,Albertsons,310,"1545 S Prairie Ave Pueblo,",CO,81005,(719) 561-4405,38.2412051,-104.6451182,"1545 S Prairie Ave, Pueblo, CO 81005, USA",ROOFTOP
633,Albertsons,311,"1601 W Us Highway 50 Pueblo,",CO,81008,(719) 543-5921,38.3108502,-104.6276301,"1601 US-50, Pueblo, CO 81008, USA",ROOFTOP
634,Albertsons,312,"311 W College Dr Durango,",CO,81301,(970) 382-2228,37.2719913,-107.8852304,"311 W College Dr, Durango, CO 81301, USA",ROOFTOP
635,Albertsons,313,"1830 N 12th St Grand Junction,",CO,81501,(970) 241-8536,39.0832935,-108.5509545,"1830 N 12th St, Grand Junction, CO 81501, USA",ROOFTOP
636,Albertsons,314,"2512 Broadway Grand Junction,",CO,81503,(970) 257-0233,39.0669233,-108.5885693,"2512 Broadway, Grand Junction, CO 81507, USA",ROOFTOP
637,Albertsons,315,"7 Tamar Ct Bear,",DE,19701,(800) 289-3595,39.5945205,-75.6754194,"7 Tamar Ct, Bear, DE 19701, USA",ROOFTOP
638,Albertsons,316,"100 Suburban Dr Newark,",DE,19711,(773) 506-2800,39.6679771,-75.7755768,"100 Suburban Dr, Newark, DE 19711, USA",ROOFTOP
639,Albertsons,317,"PO Box 3010 Wilmington,",DE,19804,(843) 396-4234,39.7198886,-75.61498929999999,"Stanton, DE 19804, USA",APPROXIMATE
640,Albertsons,318,"236 E Glenwood Ave Smyrna,",DE,19977,(775) 885-9530,39.3058032,-75.61004230000002,"236 E Glenwood Ave, Smyrna, DE 19977, USA",ROOFTOP
641,Albertsons,319,"4950 Belle Terre Pkwy Palm Coast,",FL,32137,(386) 446-5600,29.5515085,-81.2356193,"4950 Belle Terre Pkwy, Palm Coast, FL 32137, USA",ROOFTOP
642,Albertsons,320,"1566 Bella Cruz Dr Lady Lake,",FL,32159,(352) 753-9405,28.9522664,-81.960897,"1566 Bella Cruz Dr, Lady Lake, FL 32159, USA",ROOFTOP
643,Albertsons,321,"2010 Apalachee Pkwy Tallahassee,",FL,32301,(850) 878-8208,30.4333032,-84.24845870000001,"2010 Apalachee Pkwy, Tallahassee, FL 32301, USA",ROOFTOP
644,Albertsons,322,"1925 N Monroe St Tallahassee,",FL,32303,(850) 386-7126,30.4667676,-84.2833445,"1925 N Monroe St, Tallahassee, FL 32303, USA",ROOFTOP
645,Albertsons,323,"101 E Bradford Rd Tallahassee,",FL,32303,(850) 386-7136,30.467457,-84.2848475,"101 E Bradford Rd, Tallahassee, FL 32303, USA",RANGE_INTERPOLATED
646,Albertsons,324,"3521 Thomasville Rd Tallahassee,",FL,32309,(850) 893-5206,30.5088104,-84.2462365,"3521 Thomasville Rd, Tallahassee, FL 32309, USA",ROOFTOP
647,Albertsons,325,"5055 N 9th Ave Pensacola,",FL,32504,(850) 484-5518,30.4729293,-87.2147054,"5055 N 9th Ave, Pensacola, FL 32504, USA",ROOFTOP
